[{"model": "viewer.airport", "pk": 1, "fields": {"name": "Rothera Point Airport", "lat": "-67.5669411575", "lon": "-68.1269931793", "ICAO": "AAXX"}}, {"model": "viewer.airport", "pk": 2, "fields": {"name": "Afutara Aerodrome", "lat": "-9.19138888889", "lon": "160.948611111", "ICAO": "AGAF"}}, {"model": "viewer.airport", "pk": 3, "fields": {"name": "Ulawa Airport", "lat": "-9.86054358262", "lon": "161.979546547", "ICAO": "AGAR"}}, {"model": "viewer.airport", "pk": 4, "fields": {"name": "Uru Harbour Airport", "lat": "-8.87333", "lon": "161.011002", "ICAO": "AGAT"}}, {"model": "viewer.airport", "pk": 5, "fields": {"name": "Barakoma Airport", "lat": "-7.912779808044434", "lon": "156.70599365234375", "ICAO": "AGBA"}}, {"model": "viewer.airport", "pk": 6, "fields": {"name": "Batuna Aerodrome", "lat": "-8.56202777778", "lon": "158.119305556", "ICAO": "AGBT"}}, {"model": "viewer.airport", "pk": 7, "fields": {"name": "Geva Airport", "lat": "-7.575829982757568", "lon": "156.5970001220703", "ICAO": "AGEV"}}, {"model": "viewer.airport", "pk": 8, "fields": {"name": "Gwaunaru'u Airport", "lat": "-8.70257", "lon": "160.682007", "ICAO": "AGGA"}}, {"model": "viewer.airport", "pk": 9, "fields": {"name": "Bellona/Anua Airport", "lat": "-11.302222222200001", "lon": "159.798333333", "ICAO": "AGGB"}}, {"model": "viewer.airport", "pk": 10, "fields": {"name": "Choiseul Bay Airport", "lat": "-6.711944", "lon": "156.396111", "ICAO": "AGGC"}}, {"model": "viewer.airport", "pk": 11, "fields": {"name": "Ballalae Airport", "lat": "-6.990745", "lon": "155.886656", "ICAO": "AGGE"}}, {"model": "viewer.airport", "pk": 12, "fields": {"name": "Fera/Maringe Airport", "lat": "-8.1075", "lon": "159.576996", "ICAO": "AGGF"}}, {"model": "viewer.airport", "pk": 13, "fields": {"name": "Honiara International Airport", "lat": "-9.428", "lon": "160.054993", "ICAO": "AGGH"}}, {"model": "viewer.airport", "pk": 14, "fields": {"name": "Babanakira Airport", "lat": "-9.7475004196167", "lon": "159.83900451660156", "ICAO": "AGGI"}}, {"model": "viewer.airport", "pk": 15, "fields": {"name": "Avu Avu Airport", "lat": "-9.86833333333", "lon": "160.410555556", "ICAO": "AGGJ"}}, {"model": "viewer.airport", "pk": 16, "fields": {"name": "Ngorangora Airport", "lat": "-10.449700355500001", "lon": "161.897994995", "ICAO": "AGGK"}}, {"model": "viewer.airport", "pk": 17, "fields": {"name": "Santa Cruz/Graciosa Bay/Luova Airport", "lat": "-10.72029972076416", "lon": "165.7949981689453", "ICAO": "AGGL"}}, {"model": "viewer.airport", "pk": 18, "fields": {"name": "Munda Airport", "lat": "-8.32797", "lon": "157.263", "ICAO": "AGGM"}}, {"model": "viewer.airport", "pk": 19, "fields": {"name": "Nusatupe Airport", "lat": "-8.09778022766", "lon": "156.863998413", "ICAO": "AGGN"}}, {"model": "viewer.airport", "pk": 20, "fields": {"name": "Mono Airport", "lat": "-7.416940212249756", "lon": "155.56500244140625", "ICAO": "AGGO"}}, {"model": "viewer.airport", "pk": 21, "fields": {"name": "Parasi Airport", "lat": "-9.641670227050781", "lon": "161.4250030517578", "ICAO": "AGGP"}}, {"model": "viewer.airport", "pk": 22, "fields": {"name": "Ontong Java Atoll Airstrip", "lat": "-5.515", "lon": "159.527778", "ICAO": "AGGQ"}}, {"model": "viewer.airport", "pk": 23, "fields": {"name": "Rennell/Tingoa Airport", "lat": "-11.533900260925293", "lon": "160.06300354003906", "ICAO": "AGGR"}}, {"model": "viewer.airport", "pk": 24, "fields": {"name": "Sege Airport", "lat": "-8.578889846801758", "lon": "157.87600708007812", "ICAO": "AGGS"}}, {"model": "viewer.airport", "pk": 25, "fields": {"name": "Santa Ana Airport", "lat": "-10.847994", "lon": "162.454108", "ICAO": "AGGT"}}, {"model": "viewer.airport", "pk": 26, "fields": {"name": "Marau Airport", "lat": "-9.861669540409999", "lon": "160.824996948", "ICAO": "AGGU"}}, {"model": "viewer.airport", "pk": 27, "fields": {"name": "Suavanao Airport", "lat": "-7.585559844970703", "lon": "158.7310028076172", "ICAO": "AGGV"}}, {"model": "viewer.airport", "pk": 28, "fields": {"name": "Yandina Airport", "lat": "-9.092816", "lon": "159.21841", "ICAO": "AGGY"}}, {"model": "viewer.airport", "pk": 29, "fields": {"name": "Kaghau Airport", "lat": "-7.3305", "lon": "157.585", "ICAO": "AGKG"}}, {"model": "viewer.airport", "pk": 30, "fields": {"name": "Kukudu Airport", "lat": "-8.0262", "lon": "156.94783", "ICAO": "AGKU"}}, {"model": "viewer.airport", "pk": 31, "fields": {"name": "Kwailabesi Airport", "lat": "-8.360508", "lon": "160.775127", "ICAO": "AGKW"}}, {"model": "viewer.airport", "pk": 32, "fields": {"name": "Nana Airport", "lat": "-10.6758", "lon": "162.2049", "ICAO": "AGNA"}}, {"model": "viewer.airport", "pk": 33, "fields": {"name": "Gatokae Aerodrome", "lat": "-8.738358", "lon": "158.202836", "ICAO": "AGOK"}}, {"model": "viewer.airport", "pk": 34, "fields": {"name": "Ringi Cove Airport", "lat": "-8.12639045715332", "lon": "157.14300537109375", "ICAO": "AGRC"}}, {"model": "viewer.airport", "pk": 35, "fields": {"name": "Ramata Airport", "lat": "-8.168060302734375", "lon": "157.64300537109375", "ICAO": "AGRM"}}, {"model": "viewer.airport", "pk": 36, "fields": {"name": "Tulaghi Heliport", "lat": "-9.108", "lon": "160.149166667", "ICAO": "AGTI"}}, {"model": "viewer.airport", "pk": 37, "fields": {"name": "Viru Harbour Airstrip", "lat": "-8.5085", "lon": "157.69", "ICAO": "AGVH"}}, {"model": "viewer.airport", "pk": 38, "fields": {"name": "Nauru International Airport", "lat": "-0.547458", "lon": "166.919006", "ICAO": "ANYN"}}, {"model": "viewer.airport", "pk": 39, "fields": {"name": "Boulder Clay Runway", "lat": "-74.739373", "lon": "164.03539", "ICAO": "AQBC"}}, {"model": "viewer.airport", "pk": 40, "fields": {"name": "Utai Airstrip", "lat": "-3.386", "lon": "141.5868", "ICAO": "ATUA"}}, {"model": "viewer.airport", "pk": 41, "fields": {"name": "Ama Airport", "lat": "-4.10111111111", "lon": "141.67", "ICAO": "AYAA"}}, {"model": "viewer.airport", "pk": 42, "fields": {"name": "Ambaluwa Airstrip", "lat": "-5.72027777778", "lon": "144.921111111", "ICAO": "AYAB"}}, {"model": "viewer.airport", "pk": 43, "fields": {"name": "Akwom Airstrip", "lat": "-3.94", "lon": "141.832777778", "ICAO": "AYAC"}}, {"model": "viewer.airport", "pk": 44, "fields": {"name": "Ande Airstrip", "lat": "-7.02083333333", "lon": "145.822222222", "ICAO": "AYAD"}}, {"model": "viewer.airport", "pk": 45, "fields": {"name": "Mount Aue Airport", "lat": "-6.23416666667", "lon": "144.664722222", "ICAO": "AYAE"}}, {"model": "viewer.airport", "pk": 46, "fields": {"name": "Afore Airstrip", "lat": "-9.142222222220001", "lon": "148.390833333", "ICAO": "AYAF"}}, {"model": "viewer.airport", "pk": 47, "fields": {"name": "Agaun Airport", "lat": "-9.930833", "lon": "149.385667", "ICAO": "AYAG"}}, {"model": "viewer.airport", "pk": 48, "fields": {"name": "Ali Airstrip", "lat": "-7.91666666667", "lon": "142.339166667", "ICAO": "AYAH"}}, {"model": "viewer.airport", "pk": 49, "fields": {"name": "Aitape Airport", "lat": "-3.1436111111100002", "lon": "142.346805556", "ICAO": "AYAI"}}, {"model": "viewer.airport", "pk": 50, "fields": {"name": "Ambua Airstrip", "lat": "-5.96222222222", "lon": "143.063888889", "ICAO": "AYAJ"}}, {"model": "viewer.airport", "pk": 51, "fields": {"name": "Aiambak Airport", "lat": "-7.342777777779999", "lon": "141.2675", "ICAO": "AYAK"}}, {"model": "viewer.airport", "pk": 52, "fields": {"name": "Agali Airstrip", "lat": "-5.344377463640001", "lon": "142.214241028", "ICAO": "AYAL"}}, {"model": "viewer.airport", "pk": 53, "fields": {"name": "Amanab Airport", "lat": "-3.586", "lon": "141.214333333", "ICAO": "AYAM"}}, {"model": "viewer.airport", "pk": 54, "fields": {"name": "Andakombe Airport", "lat": "-7.13722222222", "lon": "145.744722222", "ICAO": "AYAN"}}, {"model": "viewer.airport", "pk": 55, "fields": {"name": "Aiome Airport", "lat": "-5.145699978", "lon": "144.7307003", "ICAO": "AYAO"}}, {"model": "viewer.airport", "pk": 56, "fields": {"name": "Appa Airstrip", "lat": "-6.516759", "lon": "144.706808", "ICAO": "AYAP"}}, {"model": "viewer.airport", "pk": 57, "fields": {"name": "Kompiam Airport", "lat": "-5.38166666667", "lon": "143.924722222", "ICAO": "AYAQ"}}, {"model": "viewer.airport", "pk": 58, "fields": {"name": "Anangalo Airstrip", "lat": "-4.6", "lon": "143.843472222", "ICAO": "AYAR"}}, {"model": "viewer.airport", "pk": 59, "fields": {"name": "Asama Airstrip", "lat": "-8.02333333333", "lon": "147.271666667", "ICAO": "AYAS"}}, {"model": "viewer.airport", "pk": 60, "fields": {"name": "Ambunti Airport", "lat": "-4.21566666667", "lon": "142.823166667", "ICAO": "AYAT"}}, {"model": "viewer.airport", "pk": 61, "fields": {"name": "Arou Airstrip", "lat": "-5.4951", "lon": "142.5137", "ICAO": "AYAU"}}, {"model": "viewer.airport", "pk": 62, "fields": {"name": "Arkosame Airstrip", "lat": "-3.777177", "lon": "142.622672", "ICAO": "AYAV"}}, {"model": "viewer.airport", "pk": 63, "fields": {"name": "Awaba Airport", "lat": "-8.00611019135", "lon": "142.748352051", "ICAO": "AYAW"}}, {"model": "viewer.airport", "pk": 64, "fields": {"name": "Aseki Airport", "lat": "-7.35080485552", "lon": "146.19386673", "ICAO": "AYAX"}}, {"model": "viewer.airport", "pk": 65, "fields": {"name": "Aiyura Airport", "lat": "-6.33805555556", "lon": "145.904166667", "ICAO": "AYAY"}}, {"model": "viewer.airport", "pk": 66, "fields": {"name": "Asimba Airstrip", "lat": "-8.605", "lon": "147.591944444", "ICAO": "AYAZ"}}, {"model": "viewer.airport", "pk": 67, "fields": {"name": "Baimuru Airport", "lat": "-7.49686002731", "lon": "144.819900513", "ICAO": "AYBA"}}, {"model": "viewer.airport", "pk": 68, "fields": {"name": "Bak Airstrip", "lat": "-5.2685", "lon": "142.097", "ICAO": "AYBB"}}, {"model": "viewer.airport", "pk": 69, "fields": {"name": "Bambu Airport", "lat": "-5.863611111110001", "lon": "146.4925", "ICAO": "AYBC"}}, {"model": "viewer.airport", "pk": 70, "fields": {"name": "Bodinumu Airport", "lat": "-9.107777777779999", "lon": "147.666722222", "ICAO": "AYBD"}}, {"model": "viewer.airport", "pk": 71, "fields": {"name": "Boure Airstrip", "lat": "-9.617916666669998", "lon": "148.745833333", "ICAO": "AYBE"}}, {"model": "viewer.airport", "pk": 72, "fields": {"name": "Bamu Airport", "lat": "-7.8485", "lon": "143.2433", "ICAO": "AYBF"}}, {"model": "viewer.airport", "pk": 73, "fields": {"name": "Baindoung Airport", "lat": "-6.34722222222", "lon": "146.942222222", "ICAO": "AYBG"}}, {"model": "viewer.airport", "pk": 74, "fields": {"name": "Bensbach Airport", "lat": "-8.85805555556", "lon": "141.259444444", "ICAO": "AYBH"}}, {"model": "viewer.airport", "pk": 75, "fields": {"name": "Bewani Airport", "lat": "-3.0216666666700003", "lon": "141.165277778", "ICAO": "AYBI"}}, {"model": "viewer.airport", "pk": 76, "fields": {"name": "Bank Airstrip", "lat": "-5.364495", "lon": "144.689805", "ICAO": "AYBJ"}}, {"model": "viewer.airport", "pk": 77, "fields": {"name": "Buka Airport", "lat": "-5.4223198890686035", "lon": "154.67300415039062", "ICAO": "AYBK"}}, {"model": "viewer.airport", "pk": 78, "fields": {"name": "Bialla Airport", "lat": "-5.3305602073700005", "lon": "151.007995605", "ICAO": "AYBL"}}, {"model": "viewer.airport", "pk": 79, "fields": {"name": "Balimo Airport", "lat": "-8.05000019073", "lon": "142.932998657", "ICAO": "AYBM"}}, {"model": "viewer.airport", "pk": 80, "fields": {"name": "Baina Airstrip", "lat": "-6.8918", "lon": "143.6818", "ICAO": "AYBN"}}, {"model": "viewer.airport", "pk": 81, "fields": {"name": "Bomai Airport", "lat": "-6.37316666667", "lon": "144.637", "ICAO": "AYBO"}}, {"model": "viewer.airport", "pk": 82, "fields": {"name": "Bapi Airstrip", "lat": "-7.743611111110001", "lon": "147.020555556", "ICAO": "AYBP"}}, {"model": "viewer.airport", "pk": 83, "fields": {"name": "Biangabip Airport", "lat": "-5.526388888890001", "lon": "141.744583333", "ICAO": "AYBQ"}}, {"model": "viewer.airport", "pk": 84, "fields": {"name": "Biaru Airport", "lat": "-7.6693", "lon": "146.7594", "ICAO": "AYBR"}}, {"model": "viewer.airport", "pk": 85, "fields": {"name": "Begesin Airstrip", "lat": "-5.3889", "lon": "145.4472", "ICAO": "AYBS"}}, {"model": "viewer.airport", "pk": 86, "fields": {"name": "Batri Airstrip", "lat": "-6.5522", "lon": "143.9441", "ICAO": "AYBT"}}, {"model": "viewer.airport", "pk": 87, "fields": {"name": "Bulolo Airport", "lat": "-7.216286671410001", "lon": "146.649541855", "ICAO": "AYBU"}}, {"model": "viewer.airport", "pk": 88, "fields": {"name": "Blackwara Airport", "lat": "-2.618211", "lon": "141.091971", "ICAO": "AYBW"}}, {"model": "viewer.airport", "pk": 89, "fields": {"name": "Wowobo Airstrip", "lat": "-7.3405", "lon": "144.5477", "ICAO": "AYBX"}}, {"model": "viewer.airport", "pk": 90, "fields": {"name": "Wuyabo Airstrip", "lat": "-6.8378", "lon": "145.8732", "ICAO": "AYBY"}}, {"model": "viewer.airport", "pk": 91, "fields": {"name": "Biniguni Airport", "lat": "-9.6425", "lon": "149.303888889", "ICAO": "AYBZ"}}, {"model": "viewer.airport", "pk": 92, "fields": {"name": "Chungribu Airport", "lat": "-4.806620121", "lon": "144.714996338", "ICAO": "AYCB"}}, {"model": "viewer.airport", "pk": 93, "fields": {"name": "Cape Gloucester Airport", "lat": "-5.458965", "lon": "148.432417", "ICAO": "AYCG"}}, {"model": "viewer.airport", "pk": 94, "fields": {"name": "Chimbu Airport", "lat": "-6.024290084838867", "lon": "144.9709930419922", "ICAO": "AYCH"}}, {"model": "viewer.airport", "pk": 95, "fields": {"name": "China Strait Airstrip", "lat": "-10.5627777778", "lon": "150.690694444", "ICAO": "AYCS"}}, {"model": "viewer.airport", "pk": 96, "fields": {"name": "Dahamo Airstrip", "lat": "-5.753194444440001", "lon": "141.993611111", "ICAO": "AYDA"}}, {"model": "viewer.airport", "pk": 97, "fields": {"name": "Debepare Airport", "lat": "-6.30861111111", "lon": "141.905555556", "ICAO": "AYDB"}}, {"model": "viewer.airport", "pk": 98, "fields": {"name": "Dobu Airstrip", "lat": "-6.6305", "lon": "144.6383", "ICAO": "AYDD"}}, {"model": "viewer.airport", "pk": 99, "fields": {"name": "Derim Airport", "lat": "-6.14472222222", "lon": "147.107222222", "ICAO": "AYDE"}}, {"model": "viewer.airport", "pk": 100, "fields": {"name": "Bundi Airport", "lat": "-5.742222222220001", "lon": "145.2275", "ICAO": "AYDI"}}, {"model": "viewer.airport", "pk": 101, "fields": {"name": "Munduku Airport", "lat": "-4.6204", "lon": "143.4516", "ICAO": "AYDK"}}, {"model": "viewer.airport", "pk": 102, "fields": {"name": "Kondobol Airport", "lat": "-8.5336", "lon": "142.5049", "ICAO": "AYDL"}}, {"model": "viewer.airport", "pk": 103, "fields": {"name": "Duranmin Airstrip", "lat": "-4.973205", "lon": "141.908161", "ICAO": "AYDM"}}, {"model": "viewer.airport", "pk": 104, "fields": {"name": "Dinangat Airport", "lat": "-6.1546", "lon": "146.6772", "ICAO": "AYDN"}}, {"model": "viewer.airport", "pk": 105, "fields": {"name": "Doini Airport", "lat": "-10.7009", "lon": "150.7218", "ICAO": "AYDO"}}, {"model": "viewer.airport", "pk": 106, "fields": {"name": "Tsendiap Airstrip", "lat": "-5.3599", "lon": "144.4462", "ICAO": "AYDP"}}, {"model": "viewer.airport", "pk": 107, "fields": {"name": "Dimisisi Airstrip", "lat": "-8.6298", "lon": "142.2162", "ICAO": "AYDQ"}}, {"model": "viewer.airport", "pk": 108, "fields": {"name": "Dorobisoro Airport", "lat": "-9.461855", "lon": "147.920907", "ICAO": "AYDR"}}, {"model": "viewer.airport", "pk": 109, "fields": {"name": "Dusin Airport", "lat": "-5.184135", "lon": "144.411965", "ICAO": "AYDS"}}, {"model": "viewer.airport", "pk": 110, "fields": {"name": "Daru Airport", "lat": "-9.08675956726", "lon": "143.207992554", "ICAO": "AYDU"}}, {"model": "viewer.airport", "pk": 111, "fields": {"name": "Dewara Airstrip", "lat": "-8.3802", "lon": "142.4475", "ICAO": "AYDW"}}, {"model": "viewer.airport", "pk": 112, "fields": {"name": "Sindeni Airstrip", "lat": "-7.0077", "lon": "145.7965", "ICAO": "AYDY"}}, {"model": "viewer.airport", "pk": 113, "fields": {"name": "Kerau Airport", "lat": "-8.271612", "lon": "147.071899", "ICAO": "AYEA"}}, {"model": "viewer.airport", "pk": 114, "fields": {"name": "Embessa Airport", "lat": "-9.447", "lon": "148.7628", "ICAO": "AYEB"}}, {"model": "viewer.airport", "pk": 115, "fields": {"name": "Edwaki Airport", "lat": "-3.883986", "lon": "141.792234", "ICAO": "AYED"}}, {"model": "viewer.airport", "pk": 116, "fields": {"name": "Emirau Airport", "lat": "-1.653949991", "lon": "149.9757667", "ICAO": "AYEE"}}, {"model": "viewer.airport", "pk": 117, "fields": {"name": "Efogi Airport", "lat": "-9.15380555556", "lon": "147.659805556", "ICAO": "AYEF"}}, {"model": "viewer.airport", "pk": 118, "fields": {"name": "Mengina Airstrip", "lat": "-6.4836", "lon": "144.986", "ICAO": "AYEG"}}, {"model": "viewer.airport", "pk": 119, "fields": {"name": "Morehead Airport", "lat": "-8.71411111111", "lon": "141.644444444", "ICAO": "AYEH"}}, {"model": "viewer.airport", "pk": 120, "fields": {"name": "Milei Airstrip", "lat": "-9.0794", "lon": "147.602", "ICAO": "AYEI"}}, {"model": "viewer.airport", "pk": 121, "fields": {"name": "Membok Airstrip", "lat": "-6.4744", "lon": "141.019", "ICAO": "AYEK"}}, {"model": "viewer.airport", "pk": 122, "fields": {"name": "Eliptamin Airport", "lat": "-5.0412", "lon": "141.6779", "ICAO": "AYEL"}}, {"model": "viewer.airport", "pk": 123, "fields": {"name": "Eleme Airstrip", "lat": "-4.8141", "lon": "143.9103", "ICAO": "AYEM"}}, {"model": "viewer.airport", "pk": 124, "fields": {"name": "Engati Airstrip", "lat": "-6.9179", "lon": "146.1053", "ICAO": "AYEN"}}, {"model": "viewer.airport", "pk": 125, "fields": {"name": "Emo River Airstrip", "lat": "-9.1234", "lon": "148.0415", "ICAO": "AYEO"}}, {"model": "viewer.airport", "pk": 126, "fields": {"name": "Erume Airport", "lat": "-8.2538", "lon": "146.9747", "ICAO": "AYER"}}, {"model": "viewer.airport", "pk": 127, "fields": {"name": "Meselia Airport", "lat": "-6.1364", "lon": "149.1183", "ICAO": "AYES"}}, {"model": "viewer.airport", "pk": 128, "fields": {"name": "Bosset Airport", "lat": "-7.237257", "lon": "141.1063222", "ICAO": "AYET"}}, {"model": "viewer.airport", "pk": 129, "fields": {"name": "Eloaua Airstrip", "lat": "-1.5601", "lon": "149.6318", "ICAO": "AYEU"}}, {"model": "viewer.airport", "pk": 130, "fields": {"name": "Erave Airport", "lat": "-6.60646315446", "lon": "143.900213242", "ICAO": "AYEV"}}, {"model": "viewer.airport", "pk": 131, "fields": {"name": "Siwea Airport", "lat": "-6.284181", "lon": "147.582371", "ICAO": "AYEW"}}, {"model": "viewer.airport", "pk": 132, "fields": {"name": "Mirsey Airstrip", "lat": "-4.0621", "lon": "142.6609", "ICAO": "AYEY"}}, {"model": "viewer.airport", "pk": 133, "fields": {"name": "Fane Airport", "lat": "-8.54927777778", "lon": "147.085833333", "ICAO": "AYFA"}}, {"model": "viewer.airport", "pk": 134, "fields": {"name": "Feramin Airport", "lat": "-5.208", "lon": "141.6988", "ICAO": "AYFE"}}, {"model": "viewer.airport", "pk": 135, "fields": {"name": "Finschhafen Airport", "lat": "-6.621750109", "lon": "147.85405", "ICAO": "AYFI"}}, {"model": "viewer.airport", "pk": 136, "fields": {"name": "Foroko Airstrip", "lat": "-5.3283", "lon": "144.8944", "ICAO": "AYFK"}}, {"model": "viewer.airport", "pk": 137, "fields": {"name": "Fogomaiu Airstrip", "lat": "-6.5096", "lon": "143.0794", "ICAO": "AYFO"}}, {"model": "viewer.airport", "pk": 138, "fields": {"name": "Frieda River Airport", "lat": "-4.610468", "lon": "141.960138", "ICAO": "AYFR"}}, {"model": "viewer.airport", "pk": 139, "fields": {"name": "Fas Airstrip", "lat": "-3.1983", "lon": "141.472", "ICAO": "AYFS"}}, {"model": "viewer.airport", "pk": 140, "fields": {"name": "Fuma Airport", "lat": "-6.3933", "lon": "142.4408", "ICAO": "AYFU"}}, {"model": "viewer.airport", "pk": 141, "fields": {"name": "Kwieftim Airstrip", "lat": "-3.6005", "lon": "141.7674", "ICAO": "AYFW"}}, {"model": "viewer.airport", "pk": 142, "fields": {"name": "Goroka Airport", "lat": "-6.081689834590001", "lon": "145.391998291", "ICAO": "AYGA"}}, {"model": "viewer.airport", "pk": 143, "fields": {"name": "Gobe Airport", "lat": "-6.8782", "lon": "143.7219", "ICAO": "AYGB"}}, {"model": "viewer.airport", "pk": 144, "fields": {"name": "Gewoia Airport", "lat": "-9.2263", "lon": "148.4949", "ICAO": "AYGC"}}, {"model": "viewer.airport", "pk": 145, "fields": {"name": "Gimi Airstrip", "lat": "-6.6482", "lon": "145.4003", "ICAO": "AYGD"}}, {"model": "viewer.airport", "pk": 146, "fields": {"name": "Geigorobi Airstrip", "lat": "-4.1055", "lon": "143.3056", "ICAO": "AYGE"}}, {"model": "viewer.airport", "pk": 147, "fields": {"name": "Guari Airport", "lat": "-8.1286", "lon": "146.8722", "ICAO": "AYGF"}}, {"model": "viewer.airport", "pk": 148, "fields": {"name": "Garasa Airport", "lat": "-7.980713", "lon": "147.213461", "ICAO": "AYGG"}}, {"model": "viewer.airport", "pk": 149, "fields": {"name": "Guhu Airstrip", "lat": "-5.6957", "lon": "146.1116", "ICAO": "AYGH"}}, {"model": "viewer.airport", "pk": 150, "fields": {"name": "Garaina Airport", "lat": "-7.875625027460001", "lon": "147.141265869", "ICAO": "AYGI"}}, {"model": "viewer.airport", "pk": 151, "fields": {"name": "Guasopa Airport", "lat": "-9.225918", "lon": "152.944352", "ICAO": "AYGJ"}}, {"model": "viewer.airport", "pk": 152, "fields": {"name": "Gonaili Airport", "lat": "-5.527716614", "lon": "151.5733333", "ICAO": "AYGL"}}, {"model": "viewer.airport", "pk": 153, "fields": {"name": "Gema Airstrip", "lat": "-6.803088", "lon": "145.775866", "ICAO": "AYGM"}}, {"model": "viewer.airport", "pk": 154, "fields": {"name": "Gurney Airport", "lat": "-10.3114995956", "lon": "150.333999634", "ICAO": "AYGN"}}, {"model": "viewer.airport", "pk": 155, "fields": {"name": "Gokto Airstrip", "lat": "-4.9136", "lon": "144.49", "ICAO": "AYGO"}}, {"model": "viewer.airport", "pk": 156, "fields": {"name": "Gusap Airport", "lat": "-6.053196", "lon": "145.959047", "ICAO": "AYGP"}}, {"model": "viewer.airport", "pk": 157, "fields": {"name": "Gawa Airstrip", "lat": "-5.259", "lon": "142.233", "ICAO": "AYGQ"}}, {"model": "viewer.airport", "pk": 158, "fields": {"name": "Girua Airport", "lat": "-8.80453968048", "lon": "148.309005737", "ICAO": "AYGR"}}, {"model": "viewer.airport", "pk": 159, "fields": {"name": "Gasuke Airport", "lat": "-6.1028", "lon": "141.7393", "ICAO": "AYGS"}}, {"model": "viewer.airport", "pk": 160, "fields": {"name": "Gasmata Island Airport", "lat": "-6.27111005783", "lon": "150.330993652", "ICAO": "AYGT"}}, {"model": "viewer.airport", "pk": 161, "fields": {"name": "Anguganak Airport", "lat": "-3.560504", "lon": "142.217307", "ICAO": "AYGU"}}, {"model": "viewer.airport", "pk": 162, "fields": {"name": "Green River Airport", "lat": "-3.9022428989400004", "lon": "141.170516968", "ICAO": "AYGV"}}, {"model": "viewer.airport", "pk": 163, "fields": {"name": "Guwasa Airport", "lat": "-6.465838", "lon": "145.083968", "ICAO": "AYGW"}}, {"model": "viewer.airport", "pk": 164, "fields": {"name": "Gora Airstrip", "lat": "-9.0021", "lon": "148.2364", "ICAO": "AYGX"}}, {"model": "viewer.airport", "pk": 165, "fields": {"name": "Guavi Airstrip", "lat": "-6.87", "lon": "142.7537", "ICAO": "AYGY"}}, {"model": "viewer.airport", "pk": 166, "fields": {"name": "Gubam Airstrip", "lat": "-8.608765", "lon": "141.919638", "ICAO": "AYGZ"}}, {"model": "viewer.airport", "pk": 167, "fields": {"name": "Haia Airport", "lat": "-6.707421", "lon": "144.997398", "ICAO": "AYHA"}}, {"model": "viewer.airport", "pk": 168, "fields": {"name": "Habi Airport", "lat": "-6.32", "lon": "142.4893", "ICAO": "AYHB"}}, {"model": "viewer.airport", "pk": 169, "fields": {"name": "Heiweni Airport", "lat": "-7.4223", "lon": "146.4276", "ICAO": "AYHE"}}, {"model": "viewer.airport", "pk": 170, "fields": {"name": "Hayfields Airport", "lat": "-3.69838", "lon": "143.057902", "ICAO": "AYHF"}}, {"model": "viewer.airport", "pk": 171, "fields": {"name": "Haelogo Airport", "lat": "-9.13658", "lon": "147.598434", "ICAO": "AYHG"}}, {"model": "viewer.airport", "pk": 172, "fields": {"name": "Honinabi Airport", "lat": "-16.2457", "lon": "142.1771", "ICAO": "AYHH"}}, {"model": "viewer.airport", "pk": 173, "fields": {"name": "Hewa Airstrip", "lat": "-5.1914", "lon": "142.9595", "ICAO": "AYHJ"}}, {"model": "viewer.airport", "pk": 174, "fields": {"name": "Hoskins Airport", "lat": "-5.46217", "lon": "150.404999", "ICAO": "AYHK"}}, {"model": "viewer.airport", "pk": 175, "fields": {"name": "Hesalibi Airstrip", "lat": "-6.6", "lon": "142.3502", "ICAO": "AYHL"}}, {"model": "viewer.airport", "pk": 176, "fields": {"name": "Haivaro Airport", "lat": "-6.9406", "lon": "143.059", "ICAO": "AYHO"}}, {"model": "viewer.airport", "pk": 177, "fields": {"name": "Hauna Airstrip", "lat": "-4.2994", "lon": "142.2305", "ICAO": "AYHQ"}}, {"model": "viewer.airport", "pk": 178, "fields": {"name": "Hotmin Airstrip", "lat": "-4.5845", "lon": "141.5742", "ICAO": "AYHT"}}, {"model": "viewer.airport", "pk": 179, "fields": {"name": "Hawabango Airport", "lat": "-7.392994", "lon": "146.003487", "ICAO": "AYHU"}}, {"model": "viewer.airport", "pk": 180, "fields": {"name": "Haewenai Airstrip", "lat": "-5.7219", "lon": "141.3205", "ICAO": "AYHW"}}, {"model": "viewer.airport", "pk": 181, "fields": {"name": "Herowena Airstrip", "lat": "-6.6229", "lon": "145.1972", "ICAO": "AYHX"}}, {"model": "viewer.airport", "pk": 182, "fields": {"name": "Huya Airstrip", "lat": "-6.2734", "lon": "142.7061", "ICAO": "AYHY"}}, {"model": "viewer.airport", "pk": 183, "fields": {"name": "Nissan Island Airport", "lat": "-4.49972009659", "lon": "154.225997925", "ICAO": "AYIA"}}, {"model": "viewer.airport", "pk": 184, "fields": {"name": "Ibil Airstrip", "lat": "-4.6828", "lon": "141.0316", "ICAO": "AYIB"}}, {"model": "viewer.airport", "pk": 185, "fields": {"name": "Indagen Airport", "lat": "-6.22663", "lon": "147.244", "ICAO": "AYID"}}, {"model": "viewer.airport", "pk": 186, "fields": {"name": "Kilifas Airstrip", "lat": "-3.2148", "lon": "141.3642", "ICAO": "AYIF"}}, {"model": "viewer.airport", "pk": 187, "fields": {"name": "Ihu Airport", "lat": "-7.8975601196300005", "lon": "145.395996094", "ICAO": "AYIH"}}, {"model": "viewer.airport", "pk": 188, "fields": {"name": "Imane Airport", "lat": "-6.7524", "lon": "146.1072", "ICAO": "AYII"}}, {"model": "viewer.airport", "pk": 189, "fields": {"name": "Itokama Airport", "lat": "-9.201527", "lon": "148.264261", "ICAO": "AYIK"}}, {"model": "viewer.airport", "pk": 190, "fields": {"name": "Bili Airstrip", "lat": "-5.66722222222", "lon": "151.099444444", "ICAO": "AYIL"}}, {"model": "viewer.airport", "pk": 191, "fields": {"name": "Kungim Airport", "lat": "-5.671", "lon": "141.03", "ICAO": "AYIM"}}, {"model": "viewer.airport", "pk": 192, "fields": {"name": "Busilmin Airstrip", "lat": "-4.9166", "lon": "141.1548", "ICAO": "AYIN"}}, {"model": "viewer.airport", "pk": 193, "fields": {"name": "Imonda Airport", "lat": "-3.328", "lon": "141.1573", "ICAO": "AYIO"}}, {"model": "viewer.airport", "pk": 194, "fields": {"name": "Iropena Airstrip", "lat": "-5.0333", "lon": "143.87084", "ICAO": "AYIP"}}, {"model": "viewer.airport", "pk": 195, "fields": {"name": "Aropa Airport", "lat": "-6.305417", "lon": "155.728139", "ICAO": "AYIQ"}}, {"model": "viewer.airport", "pk": 196, "fields": {"name": "Inaru Airstrip", "lat": "-4.6316", "lon": "142.8913", "ICAO": "AYIR"}}, {"model": "viewer.airport", "pk": 197, "fields": {"name": "Isan Airstrip", "lat": "-5.9781", "lon": "146.61975", "ICAO": "AYIS"}}, {"model": "viewer.airport", "pk": 198, "fields": {"name": "Iteri Airstrip", "lat": "-4.2418", "lon": "141.5234", "ICAO": "AYIT"}}, {"model": "viewer.airport", "pk": 199, "fields": {"name": "Ialibu Airport", "lat": "-6.2782", "lon": "143.9944", "ICAO": "AYIU"}}, {"model": "viewer.airport", "pk": 200, "fields": {"name": "Wasua Airport", "lat": "-8.2836", "lon": "142.8697", "ICAO": "AYIW"}}, {"model": "viewer.airport", "pk": 201, "fields": {"name": "Witu Airport", "lat": "-4.689522", "lon": "149.440112", "ICAO": "AYIX"}}, {"model": "viewer.airport", "pk": 202, "fields": {"name": "Miyanmin Airport", "lat": "-4.903055555560001", "lon": "141.620833333", "ICAO": "AYIY"}}, {"model": "viewer.airport", "pk": 203, "fields": {"name": "Jacquinot Bay Airport", "lat": "-5.65250015259", "lon": "151.507003784", "ICAO": "AYJB"}}, {"model": "viewer.airport", "pk": 204, "fields": {"name": "Yomneri Airstrip", "lat": "-5.237", "lon": "144.6007", "ICAO": "AYJE"}}, {"model": "viewer.airport", "pk": 205, "fields": {"name": "Junkaral Airstrip", "lat": "-5.42316666667", "lon": "145.010027778", "ICAO": "AYJL"}}, {"model": "viewer.airport", "pk": 206, "fields": {"name": "Yongai Airport", "lat": "-8.5289", "lon": "147.4603", "ICAO": "AYJO"}}, {"model": "viewer.airport", "pk": 207, "fields": {"name": "Josephstaal Airport", "lat": "-4.74708333333", "lon": "145.007083333", "ICAO": "AYJS"}}, {"model": "viewer.airport", "pk": 208, "fields": {"name": "Losuia Airport", "lat": "-8.505820274353027", "lon": "151.08099365234375", "ICAO": "AYKA"}}, {"model": "viewer.airport", "pk": 209, "fields": {"name": "Kabwum", "lat": "-6.15547222222", "lon": "147.191472222", "ICAO": "AYKB"}}, {"model": "viewer.airport", "pk": 210, "fields": {"name": "Kandrian Airport", "lat": "-6.19217", "lon": "149.54783", "ICAO": "AYKC"}}, {"model": "viewer.airport", "pk": 211, "fields": {"name": "Kamina Airport", "lat": "-7.64925", "lon": "145.956944444", "ICAO": "AYKD"}}, {"model": "viewer.airport", "pk": 212, "fields": {"name": "Kafa Airstrip", "lat": "-6.586888888890001", "lon": "143.515", "ICAO": "AYKF"}}, {"model": "viewer.airport", "pk": 213, "fields": {"name": "Kopiago Airport", "lat": "-5.3883", "lon": "142.4977", "ICAO": "AYKG"}}, {"model": "viewer.airport", "pk": 214, "fields": {"name": "Kamulai Airport", "lat": "-8.150694444440001", "lon": "146.834", "ICAO": "AYKH"}}, {"model": "viewer.airport", "pk": 215, "fields": {"name": "Kiunga Airport", "lat": "-6.1257100105285645", "lon": "141.28199768066406", "ICAO": "AYKI"}}, {"model": "viewer.airport", "pk": 216, "fields": {"name": "Kanainj Airport", "lat": "-5.2903", "lon": "144.7072", "ICAO": "AYKJ"}}, {"model": "viewer.airport", "pk": 217, "fields": {"name": "Kikori Airport", "lat": "-7.424379825592041", "lon": "144.2500762939453", "ICAO": "AYKK"}}, {"model": "viewer.airport", "pk": 218, "fields": {"name": "Kafle Airstrip", "lat": "-3.75", "lon": "142.59", "ICAO": "AYKL"}}, {"model": "viewer.airport", "pk": 219, "fields": {"name": "Kerema Airport", "lat": "-7.96361017227", "lon": "145.770996094", "ICAO": "AYKM"}}, {"model": "viewer.airport", "pk": 220, "fields": {"name": "Kubuna Airstrip", "lat": "-8.6917", "lon": "146.7566", "ICAO": "AYKN"}}, {"model": "viewer.airport", "pk": 221, "fields": {"name": "Kokoda Airport", "lat": "-8.88467884064", "lon": "147.730957031", "ICAO": "AYKO"}}, {"model": "viewer.airport", "pk": 222, "fields": {"name": "Kagi Airport", "lat": "-9.135916666670001", "lon": "147.669444444", "ICAO": "AYKQ"}}, {"model": "viewer.airport", "pk": 223, "fields": {"name": "Kar Kar Airport", "lat": "-4.557", "lon": "145.9404", "ICAO": "AYKR"}}, {"model": "viewer.airport", "pk": 224, "fields": {"name": "Kamusi Airport", "lat": "-7.420347", "lon": "143.121811", "ICAO": "AYKS"}}, {"model": "viewer.airport", "pk": 225, "fields": {"name": "Kaintiba Airport", "lat": "-7.50025", "lon": "146.033833333", "ICAO": "AYKT"}}, {"model": "viewer.airport", "pk": 226, "fields": {"name": "Kuri Airport", "lat": "-7.135083", "lon": "143.276111", "ICAO": "AYKU"}}, {"model": "viewer.airport", "pk": 227, "fields": {"name": "Kavieng Airport", "lat": "-2.57940006256", "lon": "150.807998657", "ICAO": "AYKV"}}, {"model": "viewer.airport", "pk": 228, "fields": {"name": "Kawito Airport", "lat": "-7.977006912229999", "lon": "142.823577881", "ICAO": "AYKW"}}, {"model": "viewer.airport", "pk": 229, "fields": {"name": "Londolovit Airport", "lat": "-3.04361009598", "lon": "152.628997803", "ICAO": "AYKY"}}, {"model": "viewer.airport", "pk": 230, "fields": {"name": "Kairiru Airstrip", "lat": "-3.3687", "lon": "143.5546", "ICAO": "AYKZ"}}, {"model": "viewer.airport", "pk": 231, "fields": {"name": "Lae Airfield", "lat": "-6.731666", "lon": "146.996368", "ICAO": "AYLA"}}, {"model": "viewer.airport", "pk": 232, "fields": {"name": "Lab Lab Airport", "lat": "-5.7204", "lon": "148.0566", "ICAO": "AYLB"}}, {"model": "viewer.airport", "pk": 233, "fields": {"name": "Lake Campbell Airstrip", "lat": "-6.7486", "lon": "142.6037", "ICAO": "AYLC"}}, {"model": "viewer.airport", "pk": 234, "fields": {"name": "Lele Airstrip", "lat": "-5.2192", "lon": "151.3938", "ICAO": "AYLE"}}, {"model": "viewer.airport", "pk": 235, "fields": {"name": "Lumusa Airstrip", "lat": "-5.52777777778", "lon": "144.065555556", "ICAO": "AYLF"}}, {"model": "viewer.airport", "pk": 236, "fields": {"name": "Keglsugl Airport", "lat": "-5.83277777778", "lon": "145.097222222", "ICAO": "AYLG"}}, {"model": "viewer.airport", "pk": 237, "fields": {"name": "Klauhau Airstrip", "lat": "-4.1305", "lon": "142.2495", "ICAO": "AYLH"}}, {"model": "viewer.airport", "pk": 238, "fields": {"name": "Kibuli Airstrip", "lat": "-9.006528", "lon": "142.698056", "ICAO": "AYLI"}}, {"model": "viewer.airport", "pk": 239, "fields": {"name": "Linga Linga Airport", "lat": "-5.5319444444400006", "lon": "149.734166667", "ICAO": "AYLL"}}, {"model": "viewer.airport", "pk": 240, "fields": {"name": "Lake Murray Airport", "lat": "-7.00992012024", "lon": "141.494003296", "ICAO": "AYLM"}}, {"model": "viewer.airport", "pk": 241, "fields": {"name": "Langimar Airport", "lat": "-7.22313888889", "lon": "146.227083333", "ICAO": "AYLN"}}, {"model": "viewer.airport", "pk": 242, "fields": {"name": "Lowai Airport", "lat": "-6.3344", "lon": "146.6458", "ICAO": "AYLO"}}, {"model": "viewer.airport", "pk": 243, "fields": {"name": "Leron Plains Airport", "lat": "-6.3917", "lon": "146.3434", "ICAO": "AYLP"}}, {"model": "viewer.airport", "pk": 244, "fields": {"name": "Lagoon Airstrip", "lat": "-8.8186", "lon": "143.1317", "ICAO": "AYLQ"}}, {"model": "viewer.airport", "pk": 245, "fields": {"name": "Lese Airport", "lat": "-8.2799", "lon": "146.2765", "ICAO": "AYLS"}}, {"model": "viewer.airport", "pk": 246, "fields": {"name": "Lengbati Airport", "lat": "-6.384611111110001", "lon": "147.368638889", "ICAO": "AYLT"}}, {"model": "viewer.airport", "pk": 247, "fields": {"name": "Lumi Airport", "lat": "-3.47683951134", "lon": "142.041292191", "ICAO": "AYLU"}}, {"model": "viewer.airport", "pk": 248, "fields": {"name": "Long Island Airport", "lat": "-5.3604", "lon": "147.0177", "ICAO": "AYLX"}}, {"model": "viewer.airport", "pk": 249, "fields": {"name": "Slai Airstrip", "lat": "-4.0322", "lon": "143.1831", "ICAO": "AYLZ"}}, {"model": "viewer.airport", "pk": 250, "fields": {"name": "Manari Airport", "lat": "-9.1908", "lon": "147.6219", "ICAO": "AYMA"}}, {"model": "viewer.airport", "pk": 251, "fields": {"name": "Morobe Airport", "lat": "-7.74", "lon": "147.59", "ICAO": "AYMB"}}, {"model": "viewer.airport", "pk": 252, "fields": {"name": "Menyamya Airport", "lat": "-7.21166666667", "lon": "146.019361111", "ICAO": "AYMC"}}, {"model": "viewer.airport", "pk": 253, "fields": {"name": "Madang Airport", "lat": "-5.20707988739", "lon": "145.789001465", "ICAO": "AYMD"}}, {"model": "viewer.airport", "pk": 254, "fields": {"name": "Mount Hagen Kagamuga Airport", "lat": "-5.826789855957031", "lon": "144.29600524902344", "ICAO": "AYMH"}}, {"model": "viewer.airport", "pk": 255, "fields": {"name": "Mindik Airport", "lat": "-6.47166666667", "lon": "147.441138889", "ICAO": "AYMI"}}, {"model": "viewer.airport", "pk": 256, "fields": {"name": "Makini Airport", "lat": "-6.532222222220001", "lon": "147.651166667", "ICAO": "AYMJ"}}, {"model": "viewer.airport", "pk": 257, "fields": {"name": "Mok Airport", "lat": "-5.730238", "lon": "149.056583", "ICAO": "AYMK"}}, {"model": "viewer.airport", "pk": 258, "fields": {"name": "Mougulu Airport", "lat": "-6.280859", "lon": "142.420775", "ICAO": "AYML"}}, {"model": "viewer.airport", "pk": 259, "fields": {"name": "Mal Airport", "lat": "-1.394444", "lon": "144.171111", "ICAO": "AYMM"}}, {"model": "viewer.airport", "pk": 260, "fields": {"name": "Mendi Airport", "lat": "-6.14774", "lon": "143.656998", "ICAO": "AYMN"}}, {"model": "viewer.airport", "pk": 261, "fields": {"name": "Momote Airport", "lat": "-2.06189", "lon": "147.423996", "ICAO": "AYMO"}}, {"model": "viewer.airport", "pk": 262, "fields": {"name": "Malalaua Airport", "lat": "-8.07138888889", "lon": "146.155472222", "ICAO": "AYMP"}}, {"model": "viewer.airport", "pk": 263, "fields": {"name": "Malam Airport", "lat": "-8.70916666667", "lon": "142.649722222", "ICAO": "AYMQ"}}, {"model": "viewer.airport", "pk": 264, "fields": {"name": "Moro Airport", "lat": "-6.36332988739", "lon": "143.238006592", "ICAO": "AYMR"}}, {"model": "viewer.airport", "pk": 265, "fields": {"name": "Misima Island Airport", "lat": "-10.689200401299999", "lon": "152.837997437", "ICAO": "AYMS"}}, {"model": "viewer.airport", "pk": 266, "fields": {"name": "Malekolon Airport", "lat": "-4.02343055556", "lon": "153.657277778", "ICAO": "AYMV"}}, {"model": "viewer.airport", "pk": 267, "fields": {"name": "Marawaka Airport", "lat": "-6.9736", "lon": "145.8849", "ICAO": "AYMW"}}, {"model": "viewer.airport", "pk": 268, "fields": {"name": "Smok Airstrip", "lat": "-3.3158", "lon": "141.2461", "ICAO": "AYMY"}}, {"model": "viewer.airport", "pk": 269, "fields": {"name": "Mapua(Mabua) Airport", "lat": "-2.81138888889", "lon": "151.991111111", "ICAO": "AYMZ"}}, {"model": "viewer.airport", "pk": 270, "fields": {"name": "Nankina Airport", "lat": "-5.837", "lon": "146.4533", "ICAO": "AYNA"}}, {"model": "viewer.airport", "pk": 271, "fields": {"name": "Kanabea Airport", "lat": "-7.538888888890001", "lon": "145.905", "ICAO": "AYNB"}}, {"model": "viewer.airport", "pk": 272, "fields": {"name": "Nadunumu Airport", "lat": "-9.14355555556", "lon": "147.68425", "ICAO": "AYNC"}}, {"model": "viewer.airport", "pk": 273, "fields": {"name": "Aua Island Airport", "lat": "-1.46055555556", "lon": "143.064722222", "ICAO": "AYND"}}, {"model": "viewer.airport", "pk": 274, "fields": {"name": "Negarbo(Negabo) Airport", "lat": "-6.567778", "lon": "144.703058", "ICAO": "AYNE"}}, {"model": "viewer.airport", "pk": 275, "fields": {"name": "Manguna Airport", "lat": "-5.577778", "lon": "151.792333", "ICAO": "AYNG"}}, {"model": "viewer.airport", "pk": 276, "fields": {"name": "Nuguria Airstrip", "lat": "-3.4075", "lon": "154.7383", "ICAO": "AYNI"}}, {"model": "viewer.airport", "pk": 277, "fields": {"name": "Namudi Airport", "lat": "-9.47375", "lon": "148.329416667", "ICAO": "AYNJ"}}, {"model": "viewer.airport", "pk": 278, "fields": {"name": "Kasonombe Airport", "lat": "-6.3819", "lon": "146.9859", "ICAO": "AYNM"}}, {"model": "viewer.airport", "pk": 279, "fields": {"name": "Kandep Airport", "lat": "-5.84061111111", "lon": "143.507222222", "ICAO": "AYNN"}}, {"model": "viewer.airport", "pk": 280, "fields": {"name": "Nomane Airport", "lat": "-6.32183", "lon": "145.070667", "ICAO": "AYNO"}}, {"model": "viewer.airport", "pk": 281, "fields": {"name": "Kibeni Airstrip", "lat": "-7.4846", "lon": "143.8224", "ICAO": "AYNQ"}}, {"model": "viewer.airport", "pk": 282, "fields": {"name": "Bunsil Airport", "lat": "-5.7243", "lon": "147.8667", "ICAO": "AYNS"}}, {"model": "viewer.airport", "pk": 283, "fields": {"name": "Kantobo Airstrip", "lat": "-6.7227", "lon": "143.5636", "ICAO": "AYNT"}}, {"model": "viewer.airport", "pk": 284, "fields": {"name": "Nuku Airport", "lat": "-3.676651", "lon": "142.484334", "ICAO": "AYNU"}}, {"model": "viewer.airport", "pk": 285, "fields": {"name": "Nowata Airport", "lat": "-9.984166666669998", "lon": "149.729166667", "ICAO": "AYNW"}}, {"model": "viewer.airport", "pk": 286, "fields": {"name": "Namatanai Airport", "lat": "-3.6695", "lon": "152.438", "ICAO": "AYNX"}}, {"model": "viewer.airport", "pk": 287, "fields": {"name": "Nambaiyufa Airport", "lat": "-6.2412", "lon": "145.2424", "ICAO": "AYNY"}}, {"model": "viewer.airport", "pk": 288, "fields": {"name": "Nadzab Airport", "lat": "-6.569803", "lon": "146.725977", "ICAO": "AYNZ"}}, {"model": "viewer.airport", "pk": 289, "fields": {"name": "Kwomtari Airstrip", "lat": "-3.598", "lon": "141.3614", "ICAO": "AYOA"}}, {"model": "viewer.airport", "pk": 290, "fields": {"name": "Obo Airport", "lat": "-7.590622421369999", "lon": "141.324262619", "ICAO": "AYOB"}}, {"model": "viewer.airport", "pk": 291, "fields": {"name": "Obura Airstrip", "lat": "-6.5507", "lon": "145.9728", "ICAO": "AYOD"}}, {"model": "viewer.airport", "pk": 292, "fields": {"name": "Konge Airport", "lat": "-6.2239", "lon": "147.2152", "ICAO": "AYOE"}}, {"model": "viewer.airport", "pk": 293, "fields": {"name": "Okao Airport", "lat": "-5.55666666667", "lon": "141.032777778", "ICAO": "AYOF"}}, {"model": "viewer.airport", "pk": 294, "fields": {"name": "Ogeranang Airport", "lat": "-6.46675", "lon": "147.364166667", "ICAO": "AYOG"}}, {"model": "viewer.airport", "pk": 295, "fields": {"name": "Okisai Airstrip", "lat": "-4.7065", "lon": "141.9006", "ICAO": "AYOH"}}, {"model": "viewer.airport", "pk": 296, "fields": {"name": "Boikoa Airstrip", "lat": "-7.038611111110001", "lon": "145.734166667", "ICAO": "AYOI"}}, {"model": "viewer.airport", "pk": 297, "fields": {"name": "Oksapmin Airport", "lat": "-5.2261", "lon": "142.2259", "ICAO": "AYOJ"}}, {"model": "viewer.airport", "pk": 298, "fields": {"name": "Komako Airport", "lat": "-7.3984", "lon": "145.8827", "ICAO": "AYOK"}}, {"model": "viewer.airport", "pk": 299, "fields": {"name": "Kol Airport", "lat": "-5.73116666667", "lon": "144.846", "ICAO": "AYOL"}}, {"model": "viewer.airport", "pk": 300, "fields": {"name": "Omora Airport", "lat": "-7.82777777778", "lon": "147.080638889", "ICAO": "AYOM"}}, {"model": "viewer.airport", "pk": 301, "fields": {"name": "Koinambe Airport", "lat": "-5.4875", "lon": "144.606944444", "ICAO": "AYON"}}, {"model": "viewer.airport", "pk": 302, "fields": {"name": "Komo-Manda Airport", "lat": "-6.0682", "lon": "142.8598", "ICAO": "AYOO"}}, {"model": "viewer.airport", "pk": 303, "fields": {"name": "Kosipe Airport", "lat": "-8.450716", "lon": "147.209195", "ICAO": "AYOP"}}, {"model": "viewer.airport", "pk": 304, "fields": {"name": "Komaio Airport", "lat": "-7.2714", "lon": "143.5952", "ICAO": "AYOQ"}}, {"model": "viewer.airport", "pk": 305, "fields": {"name": "Kabori Airstrip", "lat": "-3.32161111111", "lon": "141.858416667", "ICAO": "AYOR"}}, {"model": "viewer.airport", "pk": 306, "fields": {"name": "Kosimbi Airstrip", "lat": "-3.9522", "lon": "143.1767", "ICAO": "AYOS"}}, {"model": "viewer.airport", "pk": 307, "fields": {"name": "Kombaku Airstrip", "lat": "-5.3817", "lon": "144.6355", "ICAO": "AYOU"}}, {"model": "viewer.airport", "pk": 308, "fields": {"name": "Olsobip Airport", "lat": "-5.3897222222200005", "lon": "141.515277778", "ICAO": "AYOV"}}, {"model": "viewer.airport", "pk": 309, "fields": {"name": "Koroba Airport", "lat": "-5.6952", "lon": "142.7441", "ICAO": "AYOW"}}, {"model": "viewer.airport", "pk": 310, "fields": {"name": "Moi Airstrip", "lat": "-4.1615", "lon": "141.2478", "ICAO": "AYOX"}}, {"model": "viewer.airport", "pk": 311, "fields": {"name": "Open Bay Airport", "lat": "-4.794727", "lon": "151.696195", "ICAO": "AYOY"}}, {"model": "viewer.airport", "pk": 312, "fields": {"name": "Kora Airstrip", "lat": "-6.4304", "lon": "145.0931", "ICAO": "AYOZ"}}, {"model": "viewer.airport", "pk": 313, "fields": {"name": "Somokopa Airstrip", "lat": "-7.0838", "lon": "142.514", "ICAO": "AYPA"}}, {"model": "viewer.airport", "pk": 314, "fields": {"name": "Paiela Airport", "lat": "-5.3725", "lon": "142.976111111", "ICAO": "AYPB"}}, {"model": "viewer.airport", "pk": 315, "fields": {"name": "Pangoa Airport", "lat": "-7.0226", "lon": "141.5605", "ICAO": "AYPC"}}, {"model": "viewer.airport", "pk": 316, "fields": {"name": "Pindiu Airport", "lat": "-6.445138888890001", "lon": "147.515833333", "ICAO": "AYPD"}}, {"model": "viewer.airport", "pk": 317, "fields": {"name": "April River Airport", "lat": "-4.67666666667", "lon": "142.540138889", "ICAO": "AYPE"}}, {"model": "viewer.airport", "pk": 318, "fields": {"name": "Pangia Airport", "lat": "-6.386", "lon": "144.1084", "ICAO": "AYPG"}}, {"model": "viewer.airport", "pk": 319, "fields": {"name": "Kapi Airstrip", "lat": "-6.371", "lon": "144.6839", "ICAO": "AYPI"}}, {"model": "viewer.airport", "pk": 320, "fields": {"name": "Pimaga Airport", "lat": "-6.49916666667", "lon": "143.510277778", "ICAO": "AYPJ"}}, {"model": "viewer.airport", "pk": 321, "fields": {"name": "Pasinkap Airstrip", "lat": "-5.01363", "lon": "144.842428", "ICAO": "AYPK"}}, {"model": "viewer.airport", "pk": 322, "fields": {"name": "Mapoda Airport", "lat": "-7.979", "lon": "143.1694", "ICAO": "AYPO"}}, {"model": "viewer.airport", "pk": 323, "fields": {"name": "Pumani Airport", "lat": "-9.7469", "lon": "149.4766", "ICAO": "AYPQ"}}, {"model": "viewer.airport", "pk": 324, "fields": {"name": "Puri Airport", "lat": "-6.47516111111", "lon": "143.987222222", "ICAO": "AYPU"}}, {"model": "viewer.airport", "pk": 325, "fields": {"name": "Panakawa Airport", "lat": "-7.67205555556", "lon": "143.124722222", "ICAO": "AYPW"}}, {"model": "viewer.airport", "pk": 326, "fields": {"name": "Pukapuki Airstrip", "lat": "-4.5362", "lon": "142.5176", "ICAO": "AYPX"}}, {"model": "viewer.airport", "pk": 327, "fields": {"name": "Port Moresby Jacksons International Airport", "lat": "-9.443380355834961", "lon": "147.22000122070312", "ICAO": "AYPY"}}, {"model": "viewer.airport", "pk": 328, "fields": {"name": "Karawari Airstrip", "lat": "-4.59666666667", "lon": "143.5225", "ICAO": "AYQA"}}, {"model": "viewer.airport", "pk": 329, "fields": {"name": "Simbari Airstrip", "lat": "-6.9623", "lon": "145.6448", "ICAO": "AYQB"}}, {"model": "viewer.airport", "pk": 330, "fields": {"name": "Tumolbil Airport", "lat": "-4.7748", "lon": "141.0133", "ICAO": "AYQL"}}, {"model": "viewer.airport", "pk": 331, "fields": {"name": "Simogu Airstrip", "lat": "-6.8008", "lon": "145.7134", "ICAO": "AYQM"}}, {"model": "viewer.airport", "pk": 332, "fields": {"name": "Sopu Airport", "lat": "-8.3038", "lon": "147.1659", "ICAO": "AYQO"}}, {"model": "viewer.airport", "pk": 333, "fields": {"name": "Ononge Airport", "lat": "-8.67436111111", "lon": "147.262416667", "ICAO": "AYQQ"}}, {"model": "viewer.airport", "pk": 334, "fields": {"name": "Sialum Airport", "lat": "-6.0908", "lon": "147.5955", "ICAO": "AYQS"}}, {"model": "viewer.airport", "pk": 335, "fields": {"name": "Tsumba Airstrip", "lat": "-4.6581", "lon": "144.6082", "ICAO": "AYQU"}}, {"model": "viewer.airport", "pk": 336, "fields": {"name": "Sinow Airstrip", "lat": "-3.9925", "lon": "141.5537", "ICAO": "AYQV"}}, {"model": "viewer.airport", "pk": 337, "fields": {"name": "Sumwari Airstrip", "lat": "-4.7508", "lon": "142.3686", "ICAO": "AYQW"}}, {"model": "viewer.airport", "pk": 338, "fields": {"name": "Kira Airport", "lat": "-8.065111111110001", "lon": "147.332027778", "ICAO": "AYRA"}}, {"model": "viewer.airport", "pk": 339, "fields": {"name": "Lakunai Airfield", "lat": "-4.223", "lon": "152.185", "ICAO": "AYRB"}}, {"model": "viewer.airport", "pk": 340, "fields": {"name": "Raba Raba Airport", "lat": "-9.97111111111", "lon": "149.832222222", "ICAO": "AYRE"}}, {"model": "viewer.airport", "pk": 341, "fields": {"name": "Arufi Airstrip", "lat": "-8.75388888889", "lon": "141.911388889", "ICAO": "AYRF"}}, {"model": "viewer.airport", "pk": 342, "fields": {"name": "Rumginae Airport", "lat": "-5.89722222222", "lon": "141.271666667", "ICAO": "AYRG"}}, {"model": "viewer.airport", "pk": 343, "fields": {"name": "Karimui Airport", "lat": "-6.4921", "lon": "144.823", "ICAO": "AYRI"}}, {"model": "viewer.airport", "pk": 344, "fields": {"name": "Kairuku Airport", "lat": "-8.817000054", "lon": "146.5243833", "ICAO": "AYRK"}}, {"model": "viewer.airport", "pk": 345, "fields": {"name": "Maralina Airstrip", "lat": "-6.9015", "lon": "146.3698", "ICAO": "AYRL"}}, {"model": "viewer.airport", "pk": 346, "fields": {"name": "Maramuni Airport", "lat": "-5.13", "lon": "143.4829", "ICAO": "AYRM"}}, {"model": "viewer.airport", "pk": 347, "fields": {"name": "Norambi Airstrip.", "lat": "-6.9125", "lon": "145.6731", "ICAO": "AYRN"}}, {"model": "viewer.airport", "pk": 348, "fields": {"name": "Kakoro(Koroko) Airstrip", "lat": "-7.8346666666700004", "lon": "146.5335", "ICAO": "AYRO"}}, {"model": "viewer.airport", "pk": 349, "fields": {"name": "Tiri Airstrip", "lat": "-6.6815", "lon": "144.1842", "ICAO": "AYRR"}}, {"model": "viewer.airport", "pk": 350, "fields": {"name": "Kirinbit Airstrip", "lat": "-4.2839", "lon": "143.1512", "ICAO": "AYRT"}}, {"model": "viewer.airport", "pk": 351, "fields": {"name": "May River Airstrip", "lat": "-4.3615", "lon": "141.785", "ICAO": "AYRV"}}, {"model": "viewer.airport", "pk": 352, "fields": {"name": "Kiriwo Airstrip", "lat": "-8.437", "lon": "141.5142", "ICAO": "AYRW"}}, {"model": "viewer.airport", "pk": 353, "fields": {"name": "Mount Boregoro Helicopter Landing  Site", "lat": "-9.8944", "lon": "148.1069", "ICAO": "AYRX"}}, {"model": "viewer.airport", "pk": 354, "fields": {"name": "Suabi Airport", "lat": "-6.10444444444", "lon": "142.278333333", "ICAO": "AYSA"}}, {"model": "viewer.airport", "pk": 355, "fields": {"name": "Sirebi Airstrip", "lat": "-7.2196", "lon": "144.2352", "ICAO": "AYSB"}}, {"model": "viewer.airport", "pk": 356, "fields": {"name": "Samban Airstrip", "lat": "-4.3655", "lon": "144.0612", "ICAO": "AYSC"}}, {"model": "viewer.airport", "pk": 357, "fields": {"name": "Saidor Airport", "lat": "-5.62713888889", "lon": "146.462777778", "ICAO": "AYSD"}}, {"model": "viewer.airport", "pk": 358, "fields": {"name": "Simberi Airport", "lat": "-2.66222222222", "lon": "151.997777778", "ICAO": "AYSE"}}, {"model": "viewer.airport", "pk": 359, "fields": {"name": "Safia Airport", "lat": "-9.59305555556", "lon": "148.636111111", "ICAO": "AYSF"}}, {"model": "viewer.airport", "pk": 360, "fields": {"name": "Sila Airport", "lat": "-9.07355555556", "lon": "148.38925", "ICAO": "AYSG"}}, {"model": "viewer.airport", "pk": 361, "fields": {"name": "Sabah Airport", "lat": "-5.5765", "lon": "155.0489", "ICAO": "AYSH"}}, {"model": "viewer.airport", "pk": 362, "fields": {"name": "Seltamin Airstrip", "lat": "-5.4122", "lon": "141.8252", "ICAO": "AYSI"}}, {"model": "viewer.airport", "pk": 363, "fields": {"name": "Simbai Airport", "lat": "-5.278611111110001", "lon": "144.544722222", "ICAO": "AYSJ"}}, {"model": "viewer.airport", "pk": 364, "fields": {"name": "Sengapi Airstrip", "lat": "-5.12583333333", "lon": "144.323611111", "ICAO": "AYSK"}}, {"model": "viewer.airport", "pk": 365, "fields": {"name": "Sehulea Airport", "lat": "-9.96452777778", "lon": "151.161861111", "ICAO": "AYSL"}}, {"model": "viewer.airport", "pk": 366, "fields": {"name": "Samberigi Airstrip", "lat": "-6.7193", "lon": "143.9338", "ICAO": "AYSM"}}, {"model": "viewer.airport", "pk": 367, "fields": {"name": "Assengseng Airstrip", "lat": "-6.023611111110001", "lon": "149.785833333", "ICAO": "AYSN"}}, {"model": "viewer.airport", "pk": 368, "fields": {"name": "Selbang Airport", "lat": "-5.315", "lon": "141.752", "ICAO": "AYSO"}}, {"model": "viewer.airport", "pk": 369, "fields": {"name": "Sapmanga Airport", "lat": "-6.075277777779999", "lon": "146.811111111", "ICAO": "AYSP"}}, {"model": "viewer.airport", "pk": 370, "fields": {"name": "Sepik Plains Airport", "lat": "-3.8821", "lon": "143.6734", "ICAO": "AYSQ"}}, {"model": "viewer.airport", "pk": 371, "fields": {"name": "Sangera Airstrip", "lat": "-3.9678", "lon": "143.2763", "ICAO": "AYSR"}}, {"model": "viewer.airport", "pk": 372, "fields": {"name": "Sasereme Airport", "lat": "-7.6217", "lon": "142.868", "ICAO": "AYSS"}}, {"model": "viewer.airport", "pk": 373, "fields": {"name": "Sturt Island Airport", "lat": "-8.1525", "lon": "142.268444444", "ICAO": "AYST"}}, {"model": "viewer.airport", "pk": 374, "fields": {"name": "Suki Airport", "lat": "-8.0466", "lon": "141.7222", "ICAO": "AYSU"}}, {"model": "viewer.airport", "pk": 375, "fields": {"name": "Sauren Airport", "lat": "-5.9701", "lon": "148.8543", "ICAO": "AYSV"}}, {"model": "viewer.airport", "pk": 376, "fields": {"name": "Satwag Airport", "lat": "-6.13955555556", "lon": "147.279166667", "ICAO": "AYSW"}}, {"model": "viewer.airport", "pk": 377, "fields": {"name": "Masa Airport", "lat": "-6.345", "lon": "147.591", "ICAO": "AYSX"}}, {"model": "viewer.airport", "pk": 378, "fields": {"name": "Serra Airstrip", "lat": "-2.9739", "lon": "141.9297", "ICAO": "AYSY"}}, {"model": "viewer.airport", "pk": 379, "fields": {"name": "Samanzing Airstrip", "lat": "-6.4513", "lon": "147.0673", "ICAO": "AYSZ"}}, {"model": "viewer.airport", "pk": 380, "fields": {"name": "Tari Airport", "lat": "-5.84499979019", "lon": "142.947998047", "ICAO": "AYTA"}}, {"model": "viewer.airport", "pk": 381, "fields": {"name": "Tabubil Airport", "lat": "-5.27861", "lon": "141.225998", "ICAO": "AYTB"}}, {"model": "viewer.airport", "pk": 382, "fields": {"name": "Tapila Airstrip", "lat": "-8.4188", "lon": "142.9043", "ICAO": "AYTC"}}, {"model": "viewer.airport", "pk": 383, "fields": {"name": "Teredau Airport", "lat": "-7.3205", "lon": "144.6384", "ICAO": "AYTD"}}, {"model": "viewer.airport", "pk": 384, "fields": {"name": "Telefomin Airport", "lat": "-5.12608", "lon": "141.641922", "ICAO": "AYTE"}}, {"model": "viewer.airport", "pk": 385, "fields": {"name": "Tetebedi Airport", "lat": "-9.1586", "lon": "148.0686", "ICAO": "AYTF"}}, {"model": "viewer.airport", "pk": 386, "fields": {"name": "Tagula Airport", "lat": "-11.3311111111", "lon": "153.202916667", "ICAO": "AYTG"}}, {"model": "viewer.airport", "pk": 387, "fields": {"name": "Tifalmin Airport", "lat": "-5.1173", "lon": "141.419", "ICAO": "AYTH"}}, {"model": "viewer.airport", "pk": 388, "fields": {"name": "Tapini Airport", "lat": "-8.35666666667", "lon": "146.989166667", "ICAO": "AYTI"}}, {"model": "viewer.airport", "pk": 389, "fields": {"name": "Tadji Airport", "lat": "-3.19819180354", "lon": "142.430963516", "ICAO": "AYTJ"}}, {"model": "viewer.airport", "pk": 390, "fields": {"name": "Tokua Airport", "lat": "-4.34046", "lon": "152.380005", "ICAO": "AYTK"}}, {"model": "viewer.airport", "pk": 391, "fields": {"name": "Talbakul Airstrip", "lat": "-6.3708", "lon": "144.7167", "ICAO": "AYTL"}}, {"model": "viewer.airport", "pk": 392, "fields": {"name": "Tamo Airstrip", "lat": "-4.7246", "lon": "144.1529", "ICAO": "AYTM"}}, {"model": "viewer.airport", "pk": 393, "fields": {"name": "Tekin Airport", "lat": "-5.24366666667", "lon": "142.165194444", "ICAO": "AYTN"}}, {"model": "viewer.airport", "pk": 394, "fields": {"name": "Kamberatoro Airport", "lat": "-3.600556", "lon": "141.051667", "ICAO": "AYTO"}}, {"model": "viewer.airport", "pk": 395, "fields": {"name": "Tep Tep Airport", "lat": "-5.9553", "lon": "146.5595", "ICAO": "AYTP"}}, {"model": "viewer.airport", "pk": 396, "fields": {"name": "Tapen Airstrip", "lat": "-5.8545", "lon": "146.6371", "ICAO": "AYTQ"}}, {"model": "viewer.airport", "pk": 397, "fields": {"name": "Tarabo Airport", "lat": "-6.46666666667", "lon": "145.532222222", "ICAO": "AYTR"}}, {"model": "viewer.airport", "pk": 398, "fields": {"name": "Tsewi Airport", "lat": "-7.0695", "lon": "146.1272", "ICAO": "AYTS"}}, {"model": "viewer.airport", "pk": 399, "fields": {"name": "Tarakbits Airport", "lat": "-5.614", "lon": "141.0421", "ICAO": "AYTT"}}, {"model": "viewer.airport", "pk": 400, "fields": {"name": "Tufi Airport", "lat": "-9.07595443726", "lon": "149.319839478", "ICAO": "AYTU"}}, {"model": "viewer.airport", "pk": 401, "fields": {"name": "Timbunke Airport", "lat": "-4.196633", "lon": "143.519222", "ICAO": "AYTV"}}, {"model": "viewer.airport", "pk": 402, "fields": {"name": "Tawa Airport", "lat": "-7.4463", "lon": "146.1067", "ICAO": "AYTW"}}, {"model": "viewer.airport", "pk": 403, "fields": {"name": "Terapo Airport", "lat": "-8.16972222222", "lon": "146.194444444", "ICAO": "AYTY"}}, {"model": "viewer.airport", "pk": 404, "fields": {"name": "Tekadu Airport", "lat": "-7.6808", "lon": "146.5503", "ICAO": "AYTZ"}}, {"model": "viewer.airport", "pk": 405, "fields": {"name": "Utai Airstrip", "lat": "-3.386", "lon": "141.5868", "ICAO": "AYUA"}}, {"model": "viewer.airport", "pk": 406, "fields": {"name": "Gubil Airstrip", "lat": "-4.883308", "lon": "141.525381", "ICAO": "AYUB"}}, {"model": "viewer.airport", "pk": 407, "fields": {"name": "Umba Airport", "lat": "-7.0214", "lon": "145.966", "ICAO": "AYUC"}}, {"model": "viewer.airport", "pk": 408, "fields": {"name": "Kais-Udave Helicopter landing site", "lat": "-8.7819", "lon": "147.2785", "ICAO": "AYUD"}}, {"model": "viewer.airport", "pk": 409, "fields": {"name": "Uroubi Airport", "lat": "-9.5162", "lon": "148.5591", "ICAO": "AYUE"}}, {"model": "viewer.airport", "pk": 410, "fields": {"name": "Brugam Airstrip", "lat": "-3.6381", "lon": "142.8379", "ICAO": "AYUG"}}, {"model": "viewer.airport", "pk": 411, "fields": {"name": "Buin Airport", "lat": "-6.72916666667", "lon": "155.683333333", "ICAO": "AYUI"}}, {"model": "viewer.airport", "pk": 412, "fields": {"name": "Musula Airstrip", "lat": "-6.8385", "lon": "142.8983", "ICAO": "AYUL"}}, {"model": "viewer.airport", "pk": 413, "fields": {"name": "Aumo Airport", "lat": "-5.731111111110001", "lon": "148.445277778", "ICAO": "AYUM"}}, {"model": "viewer.airport", "pk": 414, "fields": {"name": "Bunam Airstrip", "lat": "-4.6564", "lon": "144.2517", "ICAO": "AYUN"}}, {"model": "viewer.airport", "pk": 415, "fields": {"name": "Omaura Airstrip", "lat": "-6.3679", "lon": "145.9902", "ICAO": "AYUO"}}, {"model": "viewer.airport", "pk": 416, "fields": {"name": "Gulgubip Airport", "lat": "-5.2808", "lon": "141.5411", "ICAO": "AYUP"}}, {"model": "viewer.airport", "pk": 417, "fields": {"name": "Kumbwareta Airstrip", "lat": "-5.5078", "lon": "144.1171", "ICAO": "AYUQ"}}, {"model": "viewer.airport", "pk": 418, "fields": {"name": "Upiara Airport", "lat": "-8.5411", "lon": "142.6503", "ICAO": "AYUR"}}, {"model": "viewer.airport", "pk": 419, "fields": {"name": "Suame Airstrip", "lat": "-8.3684", "lon": "142.5862", "ICAO": "AYUS"}}, {"model": "viewer.airport", "pk": 420, "fields": {"name": "Bunguwat Airstrip", "lat": "-6.005", "lon": "146.7205", "ICAO": "AYUT"}}, {"model": "viewer.airport", "pk": 421, "fields": {"name": "Bu'u Airstrip", "lat": "-7.4011", "lon": "145.8149", "ICAO": "AYUU"}}, {"model": "viewer.airport", "pk": 422, "fields": {"name": "Tuvau Airstrip", "lat": "-6.6025", "lon": "145.8372", "ICAO": "AYUV"}}, {"model": "viewer.airport", "pk": 423, "fields": {"name": "Auwi Airstrip", "lat": "-5.51", "lon": "142.6392", "ICAO": "AYUW"}}, {"model": "viewer.airport", "pk": 424, "fields": {"name": "Usarumpia Airstrip", "lat": "-6.9858", "lon": "145.8102", "ICAO": "AYUX"}}, {"model": "viewer.airport", "pk": 425, "fields": {"name": "Kuyol Airport", "lat": "-5.372361111110001", "lon": "141.623888889", "ICAO": "AYUY"}}, {"model": "viewer.airport", "pk": 426, "fields": {"name": "Uvol Airport", "lat": "-6.0178", "lon": "150.9557", "ICAO": "AYUZ"}}, {"model": "viewer.airport", "pk": 427, "fields": {"name": "Vailala Airstrip", "lat": "-7.7677", "lon": "145.4857", "ICAO": "AYVA"}}, {"model": "viewer.airport", "pk": 428, "fields": {"name": "Tobou Airstrip", "lat": "-6.4026", "lon": "147.4223", "ICAO": "AYVB"}}, {"model": "viewer.airport", "pk": 429, "fields": {"name": "Talasea Airport", "lat": "-5.2726", "lon": "150.0089", "ICAO": "AYVL"}}, {"model": "viewer.airport", "pk": 430, "fields": {"name": "Torembi Airport", "lat": "-4.0165", "lon": "143.1329", "ICAO": "AYVM"}}, {"model": "viewer.airport", "pk": 431, "fields": {"name": "Vanimo Airport", "lat": "-2.6926", "lon": "141.3028", "ICAO": "AYVN"}}, {"model": "viewer.airport", "pk": 432, "fields": {"name": "Tonu Airport", "lat": "-6.6552", "lon": "155.4326", "ICAO": "AYVO"}}, {"model": "viewer.airport", "pk": 433, "fields": {"name": "Woposali Airstrip", "lat": "-6.6577", "lon": "144.2974", "ICAO": "AYVP"}}, {"model": "viewer.airport", "pk": 434, "fields": {"name": "Wuvulu Island Airport", "lat": "-1.73611111111", "lon": "142.836666667", "ICAO": "AYVW"}}, {"model": "viewer.airport", "pk": 435, "fields": {"name": "Asinuwa Airstrip", "lat": "-7.0287", "lon": "145.7678", "ICAO": "AYWA"}}, {"model": "viewer.airport", "pk": 436, "fields": {"name": "Wabo Airport", "lat": "-6.98944444444", "lon": "145.075111111", "ICAO": "AYWB"}}, {"model": "viewer.airport", "pk": 437, "fields": {"name": "Wantoat Airport", "lat": "-6.1325", "lon": "146.467777778", "ICAO": "AYWC"}}, {"model": "viewer.airport", "pk": 438, "fields": {"name": "Wapenamanda Airport", "lat": "-5.6433", "lon": "143.895004", "ICAO": "AYWD"}}, {"model": "viewer.airport", "pk": 439, "fields": {"name": "Wawoi Falls Airport", "lat": "-6.9523", "lon": "142.6557", "ICAO": "AYWF"}}, {"model": "viewer.airport", "pk": 440, "fields": {"name": "Wanigela Airport", "lat": "-9.3375", "lon": "149.155555556", "ICAO": "AYWG"}}, {"model": "viewer.airport", "pk": 441, "fields": {"name": "Wanuma Airport", "lat": "-4.8961", "lon": "145.3213", "ICAO": "AYWH"}}, {"model": "viewer.airport", "pk": 442, "fields": {"name": "Wapolu Airport", "lat": "-9.3376", "lon": "150.5093", "ICAO": "AYWJ"}}, {"model": "viewer.airport", "pk": 443, "fields": {"name": "Wewak International Airport", "lat": "-3.58383011818", "lon": "143.669006348", "ICAO": "AYWK"}}, {"model": "viewer.airport", "pk": 444, "fields": {"name": "Nugwaia Airstrip", "lat": "-3.8183", "lon": "142.835", "ICAO": "AYWN"}}, {"model": "viewer.airport", "pk": 445, "fields": {"name": "Wonenara Airport", "lat": "-6.796861111110001", "lon": "145.891944444", "ICAO": "AYWO"}}, {"model": "viewer.airport", "pk": 446, "fields": {"name": "Wakunai Airport", "lat": "-5.8603", "lon": "155.2223", "ICAO": "AYWQ"}}, {"model": "viewer.airport", "pk": 447, "fields": {"name": "Wasu Airport", "lat": "-5.96170944919", "lon": "147.19822526", "ICAO": "AYWS"}}, {"model": "viewer.airport", "pk": 448, "fields": {"name": "Woitape Airport", "lat": "-8.54583333333", "lon": "147.2525", "ICAO": "AYWT"}}, {"model": "viewer.airport", "pk": 449, "fields": {"name": "Wau Airport", "lat": "-7.345555555560001", "lon": "146.718611111", "ICAO": "AYWU"}}, {"model": "viewer.airport", "pk": 450, "fields": {"name": "Warasai Airstrip", "lat": "-4.012", "lon": "142.51", "ICAO": "AYWV"}}, {"model": "viewer.airport", "pk": 451, "fields": {"name": "Owena Airstrip", "lat": "-6.6962", "lon": "145.8094", "ICAO": "AYWW"}}, {"model": "viewer.airport", "pk": 452, "fields": {"name": "Buluwo Airstrip", "lat": "-3.6753", "lon": "142.0151", "ICAO": "AYXB"}}, {"model": "viewer.airport", "pk": 453, "fields": {"name": "Yeva Airport", "lat": "-7.548", "lon": "146.188", "ICAO": "AYXE"}}, {"model": "viewer.airport", "pk": 454, "fields": {"name": "Sugu Airstrip", "lat": "-6.3907", "lon": "143.5565", "ICAO": "AYXG"}}, {"model": "viewer.airport", "pk": 455, "fields": {"name": "Yehebi Airstrip", "lat": "-6.3928", "lon": "142.2661", "ICAO": "AYXH"}}, {"model": "viewer.airport", "pk": 456, "fields": {"name": "Sim Airport", "lat": "-7.75", "lon": "146.9273", "ICAO": "AYXI"}}, {"model": "viewer.airport", "pk": 457, "fields": {"name": "Tol Airport", "lat": "-4.98083019257", "lon": "152.009994507", "ICAO": "AYXO"}}, {"model": "viewer.airport", "pk": 458, "fields": {"name": "Wipim Airport", "lat": "-8.788220405579999", "lon": "142.882003784", "ICAO": "AYXP"}}, {"model": "viewer.airport", "pk": 459, "fields": {"name": "Sisamin Airstrip", "lat": "-5.1363", "lon": "142.284", "ICAO": "AYXS"}}, {"model": "viewer.airport", "pk": 460, "fields": {"name": "Weam Airport", "lat": "-8.6184", "lon": "141.1381", "ICAO": "AYXW"}}, {"model": "viewer.airport", "pk": 461, "fields": {"name": "Yebil Airstrip", "lat": "-3.4625", "lon": "141.9559", "ICAO": "AYXY"}}, {"model": "viewer.airport", "pk": 462, "fields": {"name": "Wobagen Airstrip", "lat": "-5.27472222222", "lon": "142.034166667", "ICAO": "AYYB"}}, {"model": "viewer.airport", "pk": 463, "fields": {"name": "Yatoam Airstrip", "lat": "-5.0949", "lon": "142.3846", "ICAO": "AYYD"}}, {"model": "viewer.airport", "pk": 464, "fields": {"name": "Yalumet Airport", "lat": "-6.09", "lon": "147.0117", "ICAO": "AYYE"}}, {"model": "viewer.airport", "pk": 465, "fields": {"name": "Yemin Airstrip", "lat": "-3.967", "lon": "142.2912", "ICAO": "AYYG"}}, {"model": "viewer.airport", "pk": 466, "fields": {"name": "Yili Airstrip", "lat": "-3.5322", "lon": "142.1645", "ICAO": "AYYI"}}, {"model": "viewer.airport", "pk": 467, "fields": {"name": "Yanungen Airstrip", "lat": "-3.4574", "lon": "142.54", "ICAO": "AYYJ"}}, {"model": "viewer.airport", "pk": 468, "fields": {"name": "Yenkis(Yankisa) Airport", "lat": "-5.10972222222", "lon": "143.917666667", "ICAO": "AYYK"}}, {"model": "viewer.airport", "pk": 469, "fields": {"name": "Tinboli Airport", "lat": "-4.0949", "lon": "143.3838", "ICAO": "AYYL"}}, {"model": "viewer.airport", "pk": 470, "fields": {"name": "Munbil Airport", "lat": "-4.855941", "lon": "141.220165", "ICAO": "AYYM"}}, {"model": "viewer.airport", "pk": 471, "fields": {"name": "Yimnalem Airstrip", "lat": "-5.1441", "lon": "144.5956", "ICAO": "AYYN"}}, {"model": "viewer.airport", "pk": 472, "fields": {"name": "Oram Airport", "lat": "-9.632916666669997", "lon": "148.048055556", "ICAO": "AYYO"}}, {"model": "viewer.airport", "pk": 473, "fields": {"name": "Yapsiei Airport", "lat": "-4.6280555555600005", "lon": "141.094166667", "ICAO": "AYYP"}}, {"model": "viewer.airport", "pk": 474, "fields": {"name": "Yagrombok Airstrip", "lat": "-3.585", "lon": "142.6285", "ICAO": "AYYQ"}}, {"model": "viewer.airport", "pk": 475, "fields": {"name": "Yasuru Airport", "lat": "-6.6015", "lon": "146.1813", "ICAO": "AYYR"}}, {"model": "viewer.airport", "pk": 476, "fields": {"name": "Mount Tauwa Airstrip", "lat": "-6.7293", "lon": "144.303", "ICAO": "AYYT"}}, {"model": "viewer.airport", "pk": 477, "fields": {"name": "Mui Airstrip", "lat": "-4.7912", "lon": "144.3113", "ICAO": "AYYU"}}, {"model": "viewer.airport", "pk": 478, "fields": {"name": "Yawa Airstrip", "lat": "-4.1003", "lon": "142.1351", "ICAO": "AYYV"}}, {"model": "viewer.airport", "pk": 479, "fields": {"name": "Yawan Airstrip", "lat": "-6.1339", "lon": "146.8438", "ICAO": "AYYW"}}, {"model": "viewer.airport", "pk": 480, "fields": {"name": "Zenag Airport", "lat": "-6.9522222222200005", "lon": "146.61625", "ICAO": "AYZA"}}, {"model": "viewer.airport", "pk": 481, "fields": {"name": "Sibilanga Airstrip", "lat": "-3.4458", "lon": "142.501", "ICAO": "AYZB"}}, {"model": "viewer.airport", "pk": 482, "fields": {"name": "Silur Airport", "lat": "-4.5298888888899995", "lon": "153.054444444", "ICAO": "AYZI"}}, {"model": "viewer.airport", "pk": 483, "fields": {"name": "Wasum Airport", "lat": "-6.0491", "lon": "149.337", "ICAO": "AYZM"}}, {"model": "viewer.airport", "pk": 484, "fields": {"name": "Sissano Airport", "lat": "-2.99944444444", "lon": "142.0445", "ICAO": "AYZN"}}, {"model": "viewer.airport", "pk": 485, "fields": {"name": "Sopise Airstrip", "lat": "-6.7887", "lon": "144.1593", "ICAO": "AYZQ"}}, {"model": "viewer.airport", "pk": 486, "fields": {"name": "Ossima Airport", "lat": "-2.91555555556", "lon": "141.297305556", "ICAO": "AYZS"}}, {"model": "viewer.airport", "pk": 487, "fields": {"name": "Oum Airstrip", "lat": "-4.2684", "lon": "142.1273", "ICAO": "AYZU"}}, {"model": "viewer.airport", "pk": 488, "fields": {"name": "Siawi Airstrip", "lat": "-4.061", "lon": "141.4197", "ICAO": "AYZW"}}, {"model": "viewer.airport", "pk": 489, "fields": {"name": "Yilui Airstrip", "lat": "-3.9292", "lon": "142.2045", "ICAO": "AYZY"}}, {"model": "viewer.airport", "pk": 490, "fields": {"name": "Zuebak Airstrip", "lat": "-6.3088", "lon": "146.5568", "ICAO": "AYZZ"}}, {"model": "viewer.airport", "pk": 491, "fields": {"name": "Aasiaat Airport", "lat": "68.721802", "lon": "-52.784698", "ICAO": "BGAA"}}, {"model": "viewer.airport", "pk": 492, "fields": {"name": "Aappilattoq (Qaasuitsup) Heliport", "lat": "72.88703", "lon": "-55.596287", "ICAO": "BGAG"}}, {"model": "viewer.airport", "pk": 493, "fields": {"name": "Akunaq Heliport", "lat": "68.7442728315", "lon": "-52.340369224499995", "ICAO": "BGAK"}}, {"model": "viewer.airport", "pk": 494, "fields": {"name": "Tasiilaq Heliport", "lat": "65.612296", "lon": "-37.618335", "ICAO": "BGAM"}}, {"model": "viewer.airport", "pk": 495, "fields": {"name": "Alluitsup Paa Heliport", "lat": "60.46445", "lon": "-45.56917", "ICAO": "BGAP"}}, {"model": "viewer.airport", "pk": 496, "fields": {"name": "Aappilattoq (Kujalleq) Heliport", "lat": "60.148357", "lon": "-44.286916", "ICAO": "BGAQ"}}, {"model": "viewer.airport", "pk": 497, "fields": {"name": "Arsuk Heliport", "lat": "61.176771", "lon": "-48.41972", "ICAO": "BGAR"}}, {"model": "viewer.airport", "pk": 498, "fields": {"name": "Ammassivik Heliport", "lat": "60.597376", "lon": "-45.382445", "ICAO": "BGAS"}}, {"model": "viewer.airport", "pk": 499, "fields": {"name": "Attu Heliport", "lat": "67.9406628551", "lon": "-53.6218696833", "ICAO": "BGAT"}}, {"model": "viewer.airport", "pk": 500, "fields": {"name": "Narsarsuaq Airport", "lat": "61.1605", "lon": "-45.425999", "ICAO": "BGBW"}}, {"model": "viewer.airport", "pk": 501, "fields": {"name": "Qasigiannguit Heliport", "lat": "68.822815547", "lon": "-51.1734473705", "ICAO": "BGCH"}}, {"model": "viewer.airport", "pk": 502, "fields": {"name": "Neerlerit Inaat Airport", "lat": "70.7431030273", "lon": "-22.6504993439", "ICAO": "BGCO"}}, {"model": "viewer.airport", "pk": 503, "fields": {"name": "Daneborg Heliport", "lat": "74.29787881879999", "lon": "-20.2299499512", "ICAO": "BGDB"}}, {"model": "viewer.airport", "pk": 504, "fields": {"name": "Danmarkshavn Landing Strip", "lat": "76.76667022705078", "lon": "-18.666667938232422", "ICAO": "BGDH"}}, {"model": "viewer.airport", "pk": 505, "fields": {"name": "Dundas Airport", "lat": "76.525", "lon": "-68.8", "ICAO": "BGDU"}}, {"model": "viewer.airport", "pk": 506, "fields": {"name": "Eqalugaarsuit Heliport", "lat": "60.6197196536", "lon": "-45.9140619636", "ICAO": "BGET"}}, {"model": "viewer.airport", "pk": 507, "fields": {"name": "Narsaq Kujalleq Heliport", "lat": "60.004694", "lon": "-44.656935", "ICAO": "BGFD"}}, {"model": "viewer.airport", "pk": 508, "fields": {"name": "Paamiut Heliport", "lat": "61.9921989441", "lon": "-49.6624984741", "ICAO": "BGFH"}}, {"model": "viewer.airport", "pk": 509, "fields": {"name": "Kangilinnguit Heliport", "lat": "61.2214781863", "lon": "-48.1109654903", "ICAO": "BGGD"}}, {"model": "viewer.airport", "pk": 510, "fields": {"name": "Godthaab / Nuuk Airport", "lat": "64.190903", "lon": "-51.678101", "ICAO": "BGGH"}}, {"model": "viewer.airport", "pk": 511, "fields": {"name": "Qeqertarsuaq Heliport", "lat": "69.251181993", "lon": "-53.5148763657", "ICAO": "BGGN"}}, {"model": "viewer.airport", "pk": 512, "fields": {"name": "Ikerasak Heliport", "lat": "70.4981453548", "lon": "-51.3030838966", "ICAO": "BGIA"}}, {"model": "viewer.airport", "pk": 513, "fields": {"name": "Iginniarfik", "lat": "68.1472255861", "lon": "-53.1735277176", "ICAO": "BGIG"}}, {"model": "viewer.airport", "pk": 514, "fields": {"name": "Ikerassaarsuk Heliport", "lat": "68.14088100629999", "lon": "-53.4414589405", "ICAO": "BGIK"}}, {"model": "viewer.airport", "pk": 515, "fields": {"name": "Ilimanaq Heliport", "lat": "69.0809150007", "lon": "-51.1143153906", "ICAO": "BGIL"}}, {"model": "viewer.airport", "pk": 516, "fields": {"name": "Innarsuit Heliport", "lat": "73.199895", "lon": "-56.010817", "ICAO": "BGIN"}}, {"model": "viewer.airport", "pk": 517, "fields": {"name": "Igaliku Heliport", "lat": "60.9920065221", "lon": "-45.4323345423", "ICAO": "BGIO"}}, {"model": "viewer.airport", "pk": 518, "fields": {"name": "Isortoq Heliport", "lat": "65.547792", "lon": "-38.976552", "ICAO": "BGIS"}}, {"model": "viewer.airport", "pk": 519, "fields": {"name": "Ikamiut Heliport", "lat": "68.6342530984", "lon": "-51.8322622776", "ICAO": "BGIT"}}, {"model": "viewer.airport", "pk": 520, "fields": {"name": "Qaqortoq Heliport", "lat": "60.715684155299996", "lon": "-46.0299186409", "ICAO": "BGJH"}}, {"model": "viewer.airport", "pk": 521, "fields": {"name": "Ilulissat Airport", "lat": "69.243202", "lon": "-51.057098", "ICAO": "BGJN"}}, {"model": "viewer.airport", "pk": 522, "fields": {"name": "Kangaatsiaq Heliport", "lat": "68.3126574861", "lon": "-53.4602075815", "ICAO": "BGKA"}}, {"model": "viewer.airport", "pk": 523, "fields": {"name": "Kulusuk Airport", "lat": "65.573601", "lon": "-37.1236", "ICAO": "BGKK"}}, {"model": "viewer.airport", "pk": 524, "fields": {"name": "Upernavik Kujalleq Heliport", "lat": "72.1527425265", "lon": "-55.5309855938", "ICAO": "BGKL"}}, {"model": "viewer.airport", "pk": 525, "fields": {"name": "Kuummiut Heliport", "lat": "65.863935", "lon": "-36.997919", "ICAO": "BGKM"}}, {"model": "viewer.airport", "pk": 526, "fields": {"name": "Kullorsuaq Heliport", "lat": "74.57805", "lon": "-57.226828", "ICAO": "BGKQ"}}, {"model": "viewer.airport", "pk": 527, "fields": {"name": "Kangersuatsiaq Heliport", "lat": "72.381092", "lon": "-55.536586", "ICAO": "BGKS"}}, {"model": "viewer.airport", "pk": 528, "fields": {"name": "Kitsissuarsuit Heliport", "lat": "68.85792599759999", "lon": "-53.123295307199996", "ICAO": "BGKT"}}, {"model": "viewer.airport", "pk": 529, "fields": {"name": "Illorsuit Heliport", "lat": "71.2419440428", "lon": "-53.5628771782", "ICAO": "BGLL"}}, {"model": "viewer.airport", "pk": 530, "fields": {"name": "Station Nord Landing Strip", "lat": "81.603622", "lon": "-16.681599", "ICAO": "BGMI"}}, {"model": "viewer.airport", "pk": 531, "fields": {"name": "Moriusaq Heliport", "lat": "76.7534922147", "lon": "-69.8450553417", "ICAO": "BGMO"}}, {"model": "viewer.airport", "pk": 532, "fields": {"name": "Maniitsoq Airport", "lat": "65.412498", "lon": "-52.9394", "ICAO": "BGMQ"}}, {"model": "viewer.airport", "pk": 533, "fields": {"name": "Mestersvig Airport", "lat": "72.2369003296", "lon": "-23.931900024399997", "ICAO": "BGMV"}}, {"model": "viewer.airport", "pk": 534, "fields": {"name": "Niaqornaarsuk Heliport", "lat": "68.236381", "lon": "-52.852148", "ICAO": "BGNK"}}, {"model": "viewer.airport", "pk": 535, "fields": {"name": "Nalunaq Heliport", "lat": "60.3572400194", "lon": "-44.8279631138", "ICAO": "BGNL"}}, {"model": "viewer.airport", "pk": 536, "fields": {"name": "Nanortalik Heliport", "lat": "60.141883975899994", "lon": "-45.232976675", "ICAO": "BGNN"}}, {"model": "viewer.airport", "pk": 537, "fields": {"name": "Station Nord Heliport", "lat": "81.6978444497", "lon": "-17.8088378906", "ICAO": "BGNO"}}, {"model": "viewer.airport", "pk": 538, "fields": {"name": "Nuugaatsiaq Heliport", "lat": "71.5387687528", "lon": "-53.205038309100004", "ICAO": "BGNQ"}}, {"model": "viewer.airport", "pk": 539, "fields": {"name": "Narsaq Heliport", "lat": "60.9172827256", "lon": "-46.059923172", "ICAO": "BGNS"}}, {"model": "viewer.airport", "pk": 540, "fields": {"name": "Niaqornat Heliport", "lat": "70.789385", "lon": "-53.662945", "ICAO": "BGNT"}}, {"model": "viewer.airport", "pk": 541, "fields": {"name": "Nuussuaq Heliport", "lat": "74.109853", "lon": "-57.065037", "ICAO": "BGNU"}}, {"model": "viewer.airport", "pk": 542, "fields": {"name": "Ikerasassuaq Heliport", "lat": "60.057220458984375", "lon": "-43.15972137451172", "ICAO": "BGPC"}}, {"model": "viewer.airport", "pk": 543, "fields": {"name": "Paamiut Airport", "lat": "62.0147361755", "lon": "-49.6709365845", "ICAO": "BGPT"}}, {"model": "viewer.airport", "pk": 544, "fields": {"name": "Qeqertaq Heliport", "lat": "69.9958611087", "lon": "-51.3009166718", "ICAO": "BGQE"}}, {"model": "viewer.airport", "pk": 545, "fields": {"name": "Qaanaaq Airport", "lat": "77.4886016846", "lon": "-69.3887023926", "ICAO": "BGQQ"}}, {"model": "viewer.airport", "pk": 546, "fields": {"name": "Qassimiut Heliport", "lat": "60.7809592284", "lon": "-47.156249284699996", "ICAO": "BGQT"}}, {"model": "viewer.airport", "pk": 547, "fields": {"name": "Ittoqqortoormiit Heliport", "lat": "70.4882288244", "lon": "-21.971679925900002", "ICAO": "BGSC"}}, {"model": "viewer.airport", "pk": 548, "fields": {"name": "Kangerlussuaq Airport", "lat": "67.012222", "lon": "-50.711603", "ICAO": "BGSF"}}, {"model": "viewer.airport", "pk": 549, "fields": {"name": "Sermiligaaq Heliport", "lat": "65.9059197626", "lon": "-36.3782536983", "ICAO": "BGSG"}}, {"model": "viewer.airport", "pk": 550, "fields": {"name": "Siorapaluk Heliport", "lat": "77.786517", "lon": "-70.638657", "ICAO": "BGSI"}}, {"model": "viewer.airport", "pk": 551, "fields": {"name": "Saarloq Heliport", "lat": "60.537778", "lon": "-46.024722", "ICAO": "BGSO"}}, {"model": "viewer.airport", "pk": 552, "fields": {"name": "Saqqaq Heliport", "lat": "70.011448", "lon": "-51.932142", "ICAO": "BGSQ"}}, {"model": "viewer.airport", "pk": 553, "fields": {"name": "Sisimiut Airport", "lat": "66.951302", "lon": "-53.729301", "ICAO": "BGSS"}}, {"model": "viewer.airport", "pk": 554, "fields": {"name": "Saattut Heliport", "lat": "70.811172", "lon": "-51.63129", "ICAO": "BGST"}}, {"model": "viewer.airport", "pk": 555, "fields": {"name": "Savissivik Heliport", "lat": "76.018613", "lon": "-65.117683", "ICAO": "BGSV"}}, {"model": "viewer.airport", "pk": 556, "fields": {"name": "Tasiusaq (Qaasuitsup) Heliport", "lat": "73.373055", "lon": "-56.06028", "ICAO": "BGTA"}}, {"model": "viewer.airport", "pk": 557, "fields": {"name": "Thule Air Base", "lat": "76.5311965942", "lon": "-68.7032012939", "ICAO": "BGTL"}}, {"model": "viewer.airport", "pk": 558, "fields": {"name": "Tiniteqilaaq Heliport", "lat": "65.892027", "lon": "-37.783409", "ICAO": "BGTN"}}, {"model": "viewer.airport", "pk": 559, "fields": {"name": "Tasiusaq (Kujalleq) Heliport", "lat": "60.1943053097", "lon": "-44.8134469986", "ICAO": "BGTQ"}}, {"model": "viewer.airport", "pk": 560, "fields": {"name": "Upernavik Airport", "lat": "72.7901992798", "lon": "-56.1305999756", "ICAO": "BGUK"}}, {"model": "viewer.airport", "pk": 561, "fields": {"name": "Uummannaq Heliport", "lat": "70.6804279261", "lon": "-52.111630439799995", "ICAO": "BGUM"}}, {"model": "viewer.airport", "pk": 562, "fields": {"name": "Qaarsut Airport", "lat": "70.7341995239", "lon": "-52.6962013245", "ICAO": "BGUQ"}}, {"model": "viewer.airport", "pk": 563, "fields": {"name": "Ukkusissat Heliport", "lat": "71.049438", "lon": "-51.890016", "ICAO": "BGUT"}}, {"model": "viewer.airport", "pk": 564, "fields": {"name": "Arnger\u0102\u00b0areyri Airport", "lat": "65.90470123291016", "lon": "-22.363300323486328", "ICAO": "BIAE"}}, {"model": "viewer.airport", "pk": 565, "fields": {"name": "\u0102\u0081lftaver Airport", "lat": "63.540000915527344", "lon": "-18.449399948120117", "ICAO": "BIAL"}}, {"model": "viewer.airport", "pk": 566, "fields": {"name": "Akureyri Airport", "lat": "65.66000366210938", "lon": "-18.07270050048828", "ICAO": "BIAR"}}, {"model": "viewer.airport", "pk": 567, "fields": {"name": "Bakki Airport", "lat": "63.55609893798828", "lon": "-20.137500762939453", "ICAO": "BIBA"}}, {"model": "viewer.airport", "pk": 568, "fields": {"name": "Bildudalur Airport", "lat": "65.64129638671875", "lon": "-23.546199798583984", "ICAO": "BIBD"}}, {"model": "viewer.airport", "pk": 569, "fields": {"name": "Borgarfj\u0102\u00b6r\u0102\u00b0ur eystri Airport", "lat": "65.51640319824219", "lon": "-13.805000305175781", "ICAO": "BIBF"}}, {"model": "viewer.airport", "pk": 570, "fields": {"name": "Baeir Airport", "lat": "66.097838", "lon": "-22.569713", "ICAO": "BIBI"}}, {"model": "viewer.airport", "pk": 571, "fields": {"name": "Bakkafj\u0102\u00b6r\u0102\u00b0ur Airport", "lat": "66.02189636230469", "lon": "-14.824399948120117", "ICAO": "BIBK"}}, {"model": "viewer.airport", "pk": 572, "fields": {"name": "Hjaltabakki Airport", "lat": "65.6449966430664", "lon": "-20.287500381469727", "ICAO": "BIBL"}}, {"model": "viewer.airport", "pk": 573, "fields": {"name": "B\u0102\u015f\u0102\u00b0ardalur Airport", "lat": "65.07530212402344", "lon": "-21.80030059814453", "ICAO": "BIBR"}}, {"model": "viewer.airport", "pk": 574, "fields": {"name": "Brei\u0102\u00b0dalsv\u0102\u00adk Airport", "lat": "64.790037", "lon": "-14.043927", "ICAO": "BIBV"}}, {"model": "viewer.airport", "pk": 575, "fields": {"name": "Dagver\u0102\u00b0ar\u0102\u02c7 Airport", "lat": "64.74500274658203", "lon": "-23.72719955444336", "ICAO": "BIDA"}}, {"model": "viewer.airport", "pk": 576, "fields": {"name": "Dj\u0102\u015fpivogur Airport", "lat": "64.642372", "lon": "-14.277297", "ICAO": "BIDV"}}, {"model": "viewer.airport", "pk": 577, "fields": {"name": "Egilssta\u0102\u00b0ir Airport", "lat": "65.2833023071289", "lon": "-14.401399612426758", "ICAO": "BIEG"}}, {"model": "viewer.airport", "pk": 578, "fields": {"name": "Einholtsmelar Airport", "lat": "64.24533", "lon": "-20.299587", "ICAO": "BIEH"}}, {"model": "viewer.airport", "pk": 579, "fields": {"name": "F\u0102\u02c7skr\u0102\u015f\u0102\u00b0sfj\u0102\u00b6r\u0102\u00b0ur Airport", "lat": "64.931456", "lon": "-14.047957", "ICAO": "BIFF"}}, {"model": "viewer.airport", "pk": 580, "fields": {"name": "Fl\u0102\u015f\u0102\u00b0ir Airport", "lat": "64.1427993774414", "lon": "-20.326099395751953", "ICAO": "BIFL"}}, {"model": "viewer.airport", "pk": 581, "fields": {"name": "Fagurh\u0102\u0142lsm\u0102\u02ddri Airport", "lat": "63.874698638916016", "lon": "-16.64109992980957", "ICAO": "BIFM"}}, {"model": "viewer.airport", "pk": 582, "fields": {"name": "Fors\u0102\u00a6ti Airport", "lat": "63.849885", "lon": "-20.717171", "ICAO": "BIFZ"}}, {"model": "viewer.airport", "pk": 583, "fields": {"name": "Geysir Airport", "lat": "64.306592", "lon": "-20.277114", "ICAO": "BIGE"}}, {"model": "viewer.airport", "pk": 584, "fields": {"name": "Grundarfj\u0102\u00b6r\u0102\u00b0ur Airport", "lat": "64.99140167236328", "lon": "-23.224700927734375", "ICAO": "BIGF"}}, {"model": "viewer.airport", "pk": 585, "fields": {"name": "Gunnarsholt Airport", "lat": "63.85329818725586", "lon": "-20.262800216674805", "ICAO": "BIGH"}}, {"model": "viewer.airport", "pk": 586, "fields": {"name": "Gj\u0102\u00b6gur Airport", "lat": "65.99530029296875", "lon": "-21.326900482177734", "ICAO": "BIGJ"}}, {"model": "viewer.airport", "pk": 587, "fields": {"name": "Gr\u0102\u00admsey Airport", "lat": "66.5458", "lon": "-18.0173", "ICAO": "BIGR"}}, {"model": "viewer.airport", "pk": 588, "fields": {"name": "Gr\u0102\u00admssta\u0102\u00b0ir Airport", "lat": "65.63249969482422", "lon": "-16.148300170898438", "ICAO": "BIGS"}}, {"model": "viewer.airport", "pk": 589, "fields": {"name": "Her\u0102\u00b0ubrei\u0102\u00b0arlindir Airport", "lat": "65.1885986328125", "lon": "-16.194700241088867", "ICAO": "BIHE"}}, {"model": "viewer.airport", "pk": 590, "fields": {"name": "Hveravellir Airport", "lat": "64.88610076904297", "lon": "-19.49250030517578", "ICAO": "BIHI"}}, {"model": "viewer.airport", "pk": 591, "fields": {"name": "H\u0102\u0142lmav\u0102\u00adk Airport", "lat": "65.70469665527344", "lon": "-21.696399688720703", "ICAO": "BIHK"}}, {"model": "viewer.airport", "pk": 592, "fields": {"name": "Hella Airport", "lat": "63.83580017089844", "lon": "-20.377500534057617", "ICAO": "BIHL"}}, {"model": "viewer.airport", "pk": 593, "fields": {"name": "Hornafj\u0102\u00b6r\u0102\u00b0ur Airport", "lat": "64.295601", "lon": "-15.2272", "ICAO": "BIHN"}}, {"model": "viewer.airport", "pk": 594, "fields": {"name": "Hvolsv\u0102\u00b6llur Airport", "lat": "63.75389862060547", "lon": "-20.244199752807617", "ICAO": "BIHR"}}, {"model": "viewer.airport", "pk": 595, "fields": {"name": "Hrafnseyri Airport", "lat": "65.75716", "lon": "-23.461404", "ICAO": "BIHS"}}, {"model": "viewer.airport", "pk": 596, "fields": {"name": "Holt Airport", "lat": "66.0141804294", "lon": "-23.4416913986", "ICAO": "BIHT"}}, {"model": "viewer.airport", "pk": 597, "fields": {"name": "H\u0102\u015fsav\u0102\u00adk Airport", "lat": "65.952301", "lon": "-17.426001", "ICAO": "BIHU"}}, {"model": "viewer.airport", "pk": 598, "fields": {"name": "Kr\u0102\u0142ksta\u0102\u00b0armelar Airport", "lat": "65.26640319824219", "lon": "-20.846900939941406", "ICAO": "BIHV"}}, {"model": "viewer.airport", "pk": 599, "fields": {"name": "Hrauneyjarfoss Airport", "lat": "64.204759", "lon": "-19.264756", "ICAO": "BIHX"}}, {"model": "viewer.airport", "pk": 600, "fields": {"name": "Hr\u0102\u00adsey Airport", "lat": "65.989204", "lon": "-18.394117", "ICAO": "BIHY"}}, {"model": "viewer.airport", "pk": 601, "fields": {"name": "H\u0102\u015fsafell Airport", "lat": "64.69969940185547", "lon": "-20.88360023498535", "ICAO": "BIHZ"}}, {"model": "viewer.airport", "pk": 602, "fields": {"name": "Ingjaldssan\u0102\u00b0ur Airport", "lat": "66.05000305175781", "lon": "-23.69610023498535", "ICAO": "BIID"}}, {"model": "viewer.airport", "pk": 603, "fields": {"name": "\u0102\u0164safj\u0102\u00b6r\u0102\u00b0ur Airport", "lat": "66.05809783935547", "lon": "-23.135299682617188", "ICAO": "BIIS"}}, {"model": "viewer.airport", "pk": 604, "fields": {"name": "Kald\u0102\u02c7rmelar Airport", "lat": "64.77890014648438", "lon": "-22.256900787353516", "ICAO": "BIKA"}}, {"model": "viewer.airport", "pk": 605, "fields": {"name": "Kerlingafj\u0102\u00b6ll Airport", "lat": "64.70500183105469", "lon": "-19.410600662231445", "ICAO": "BIKE"}}, {"model": "viewer.airport", "pk": 606, "fields": {"name": "Keflavik International Airport", "lat": "63.985001", "lon": "-22.6056", "ICAO": "BIKF"}}, {"model": "viewer.airport", "pk": 607, "fields": {"name": "Kroksfjard-Arnes Airport", "lat": "65.46700286865234", "lon": "-21.950000762939453", "ICAO": "BIKJ"}}, {"model": "viewer.airport", "pk": 608, "fields": {"name": "Kirkjub\u0102\u00a6jarklaustur Airport", "lat": "63.792685", "lon": "-18.004684", "ICAO": "BIKL"}}, {"model": "viewer.airport", "pk": 609, "fields": {"name": "K\u0102\u0142pasker Airport", "lat": "66.31079864501953", "lon": "-16.466699600219727", "ICAO": "BIKP"}}, {"model": "viewer.airport", "pk": 610, "fields": {"name": "Sau\u0102\u00b0\u0102\u02c7rkr\u0102\u0142kur Airport", "lat": "65.73169708249999", "lon": "-19.572799682599996", "ICAO": "BIKR"}}, {"model": "viewer.airport", "pk": 611, "fields": {"name": "M\u0102\u015flakot Airport", "lat": "63.71419906616211", "lon": "-19.879199981689453", "ICAO": "BIMK"}}, {"model": "viewer.airport", "pk": 612, "fields": {"name": "Melger\u0102\u00b0ismelar Airport", "lat": "65.4832992553711", "lon": "-18.16670036315918", "ICAO": "BIMM"}}, {"model": "viewer.airport", "pk": 613, "fields": {"name": "Melanes Airport", "lat": "65.51699829101562", "lon": "-22.399999618530273", "ICAO": "BIMN"}}, {"model": "viewer.airport", "pk": 614, "fields": {"name": "Tungubakkar Airport", "lat": "64.18109893798828", "lon": "-21.707799911499023", "ICAO": "BIMS"}}, {"model": "viewer.airport", "pk": 615, "fields": {"name": "N\u0102\u02ddjidalur Airport", "lat": "64.72059631347656", "lon": "-18.066699981689453", "ICAO": "BIND"}}, {"model": "viewer.airport", "pk": 616, "fields": {"name": "Nor\u0102\u00b0fj\u0102\u00b6r\u0102\u00b0ur Airport", "lat": "65.13189697265625", "lon": "-13.746399879455566", "ICAO": "BINF"}}, {"model": "viewer.airport", "pk": 617, "fields": {"name": "\u0102\u201clafsfj\u0102\u00b6r\u0102\u00b0ur Airport", "lat": "66.08329772949219", "lon": "-18.66670036315918", "ICAO": "BIOF"}}, {"model": "viewer.airport", "pk": 618, "fields": {"name": "Patreksfj\u0102\u00b6r\u0102\u00b0ur Airport", "lat": "65.555801", "lon": "-23.965", "ICAO": "BIPA"}}, {"model": "viewer.airport", "pk": 619, "fields": {"name": "Reykh\u0102\u0142lar Airport", "lat": "65.45262908935547", "lon": "-22.20611572265625", "ICAO": "BIRE"}}, {"model": "viewer.airport", "pk": 620, "fields": {"name": "Rif Airport", "lat": "64.9113998413", "lon": "-23.8230991364", "ICAO": "BIRF"}}, {"model": "viewer.airport", "pk": 621, "fields": {"name": "Raufarh\u0102\u00b6fn Airport", "lat": "66.40640258789062", "lon": "-15.918299674987793", "ICAO": "BIRG"}}, {"model": "viewer.airport", "pk": 622, "fields": {"name": "Reykjavik Airport", "lat": "64.1299972534", "lon": "-21.9405994415", "ICAO": "BIRK"}}, {"model": "viewer.airport", "pk": 623, "fields": {"name": "Reykjahl\u0102\u00ad\u0102\u00b0 Airport", "lat": "65.65579986572266", "lon": "-16.918100357055664", "ICAO": "BIRL"}}, {"model": "viewer.airport", "pk": 624, "fields": {"name": "Reykjanes Airport", "lat": "65.91419982910156", "lon": "-22.42140007019043", "ICAO": "BIRS"}}, {"model": "viewer.airport", "pk": 625, "fields": {"name": "Sand\u0102\u02c7 Airport", "lat": "65.1343994140625", "lon": "-19.66309928894043", "ICAO": "BISA"}}, {"model": "viewer.airport", "pk": 626, "fields": {"name": "Selfoss Airport", "lat": "63.92919921875", "lon": "-21.037799835205078", "ICAO": "BISF"}}, {"model": "viewer.airport", "pk": 627, "fields": {"name": "Steinasandur Airport", "lat": "64.16699981689453", "lon": "-15.899999618530273", "ICAO": "BISG"}}, {"model": "viewer.airport", "pk": 628, "fields": {"name": "Stora-Holt Airport", "lat": "65.4000015258789", "lon": "-21.933000564575195", "ICAO": "BISH"}}, {"model": "viewer.airport", "pk": 629, "fields": {"name": "Siglufj\u0102\u00b6r\u0102\u00b0ur Airport", "lat": "66.137847", "lon": "-18.908157", "ICAO": "BISI"}}, {"model": "viewer.airport", "pk": 630, "fields": {"name": "Sk\u0102\u0142gasandur Airport", "lat": "63.5172004699707", "lon": "-19.489200592041016", "ICAO": "BISK"}}, {"model": "viewer.airport", "pk": 631, "fields": {"name": "Sv\u0102\u00adnafell Airport", "lat": "64.384723", "lon": "-15.371935", "ICAO": "BISN"}}, {"model": "viewer.airport", "pk": 632, "fields": {"name": "Sprengisandur Airport", "lat": "64.6541976928711", "lon": "-18.49690055847168", "ICAO": "BISP"}}, {"model": "viewer.airport", "pk": 633, "fields": {"name": "St\u0102\u0142rikroppur Airport", "lat": "64.6343994140625", "lon": "-21.487499237060547", "ICAO": "BISR"}}, {"model": "viewer.airport", "pk": 634, "fields": {"name": "Sandskei\u0102\u00b0 Airport", "lat": "64.06079864501953", "lon": "-21.57469940185547", "ICAO": "BISS"}}, {"model": "viewer.airport", "pk": 635, "fields": {"name": "Stykkish\u0102\u0142lmur Airport", "lat": "65.05809783935547", "lon": "-22.794200897216797", "ICAO": "BIST"}}, {"model": "viewer.airport", "pk": 636, "fields": {"name": "Sk\u0102\u02c7lavatn Airport", "lat": "64.11579895019531", "lon": "-18.783300399780273", "ICAO": "BISV"}}, {"model": "viewer.airport", "pk": 637, "fields": {"name": "\u0102\u017eingeyri Airport", "lat": "65.87030029296875", "lon": "-23.559999465942383", "ICAO": "BITE"}}, {"model": "viewer.airport", "pk": 638, "fields": {"name": "T\u0102\u02c7lknafj\u0102\u00b6r\u0102\u00b0ur Airport", "lat": "65.676037", "lon": "-24.006114", "ICAO": "BITF"}}, {"model": "viewer.airport", "pk": 639, "fields": {"name": "Sau\u0102\u00b0anes Airport", "lat": "66.251859", "lon": "-15.273914", "ICAO": "BITH"}}, {"model": "viewer.airport", "pk": 640, "fields": {"name": "\u0102\u017e\u0102\u0142rsm\u0102\u00b6rk Airport", "lat": "63.689998626708984", "lon": "-19.563100814819336", "ICAO": "BITM"}}, {"model": "viewer.airport", "pk": 641, "fields": {"name": "\u0102\u017e\u0102\u0142rsh\u0102\u00b6fn Airport", "lat": "66.218498", "lon": "-15.3356", "ICAO": "BITN"}}, {"model": "viewer.airport", "pk": 642, "fields": {"name": "Thorisos Airport", "lat": "64.354373", "lon": "-18.836514", "ICAO": "BITO"}}, {"model": "viewer.airport", "pk": 643, "fields": {"name": "Vatnsnes Airport", "lat": "64.03309631347656", "lon": "-20.651100158691406", "ICAO": "BIVA"}}, {"model": "viewer.airport", "pk": 644, "fields": {"name": "Varmahlid Airport", "lat": "65.55694580078125", "lon": "-19.428056716918945", "ICAO": "BIVH"}}, {"model": "viewer.airport", "pk": 645, "fields": {"name": "V\u0102\u00adk Airport", "lat": "63.42169952392578", "lon": "-18.8882999420166", "ICAO": "BIVI"}}, {"model": "viewer.airport", "pk": 646, "fields": {"name": "Vestmannaeyjar Airport", "lat": "63.42430114746094", "lon": "-20.278900146484375", "ICAO": "BIVM"}}, {"model": "viewer.airport", "pk": 647, "fields": {"name": "Vopnafj\u0102\u00b6r\u0102\u00b0ur Airport", "lat": "65.72059631347656", "lon": "-14.850600242614746", "ICAO": "BIVO"}}, {"model": "viewer.airport", "pk": 648, "fields": {"name": "Pri\u0139\u02c7tina Adem Jashari International Airport", "lat": "42.5728", "lon": "21.035801", "ICAO": "BKPR"}}, {"model": "viewer.airport", "pk": 649, "fields": {"name": "Vali Ranch Heliport", "lat": "42.513732", "lon": "21.534508", "ICAO": "BKVR"}}, {"model": "viewer.airport", "pk": 650, "fields": {"name": "Bobs", "lat": "35.391523", "lon": "-91.443706", "ICAO": "BOBS"}}, {"model": "viewer.airport", "pk": 651, "fields": {"name": "Bonita", "lat": "32.894407", "lon": "-91.711392", "ICAO": "BONI"}}, {"model": "viewer.airport", "pk": 652, "fields": {"name": "Bella Bella (Campbell Island) Airport", "lat": "52.185001", "lon": "-128.156994", "ICAO": "CBBC"}}, {"model": "viewer.airport", "pk": 653, "fields": {"name": "Campbellton (Regional Hospital) Heliport", "lat": "47.994175876099995", "lon": "-66.6654655337", "ICAO": "CCRH"}}, {"model": "viewer.airport", "pk": 654, "fields": {"name": "A & C AG Aviation Inc", "lat": "32.171115", "lon": "-83.692893", "ICAO": "CHAN"}}, {"model": "viewer.airport", "pk": 655, "fields": {"name": "Halifax (Queen Elizabeth II Health Science Centre) Heliport", "lat": "44.645941012499996", "lon": "-63.586530983399996", "ICAO": "CHQE"}}, {"model": "viewer.airport", "pk": 656, "fields": {"name": "Mount Belcher Heliport", "lat": "48.832801818847656", "lon": "-123.50499725341797", "ICAO": "CMBH"}}, {"model": "viewer.airport", "pk": 657, "fields": {"name": "Stoney Point (Le Cunff) Airport", "lat": "42.29560089111328", "lon": "-82.53500366210938", "ICAO": "CRML"}}, {"model": "viewer.airport", "pk": 658, "fields": {"name": "Nootka Lightstation Helipad", "lat": "49.59225", "lon": "-126.616383", "ICAO": "CWCV"}}, {"model": "viewer.airport", "pk": 659, "fields": {"name": "Chatham Point Light Station Helipad", "lat": "50.333101", "lon": "-125.445263", "ICAO": "CWFM"}}, {"model": "viewer.airport", "pk": 660, "fields": {"name": "Ennadai Lake Airport", "lat": "61.1333333333", "lon": "-100.9", "ICAO": "CWJC"}}, {"model": "viewer.airport", "pk": 661, "fields": {"name": "Point Petre Helipad", "lat": "43.843244", "lon": "-77.144757", "ICAO": "CWQP"}}, {"model": "viewer.airport", "pk": 662, "fields": {"name": "Croker River Airport", "lat": "69.290565", "lon": "-119.174259", "ICAO": "CWXR"}}, {"model": "viewer.airport", "pk": 663, "fields": {"name": "Boat Bluff Lighthouse Helipad", "lat": "52.643733", "lon": "-128.524586", "ICAO": "CWZM"}}, {"model": "viewer.airport", "pk": 664, "fields": {"name": "Arctic Bay Airport", "lat": "73.006101", "lon": "-85.04616", "ICAO": "CYAB"}}, {"model": "viewer.airport", "pk": 665, "fields": {"name": "Cat Lake Airport", "lat": "51.72719955444336", "lon": "-91.82440185546875", "ICAO": "CYAC"}}, {"model": "viewer.airport", "pk": 666, "fields": {"name": "La Grande-3 Airport", "lat": "53.5717010498", "lon": "-76.19640350339999", "ICAO": "CYAD"}}, {"model": "viewer.airport", "pk": 667, "fields": {"name": "Fort Frances Municipal Airport", "lat": "48.65420150756836", "lon": "-93.439697265625", "ICAO": "CYAG"}}, {"model": "viewer.airport", "pk": 668, "fields": {"name": "La Grande-4 Airport", "lat": "53.754699707", "lon": "-73.6753005981", "ICAO": "CYAH"}}, {"model": "viewer.airport", "pk": 669, "fields": {"name": "Alert Bay Airport", "lat": "50.58219909667969", "lon": "-126.91600036621094", "ICAO": "CYAL"}}, {"model": "viewer.airport", "pk": 670, "fields": {"name": "Sault Ste Marie Airport", "lat": "46.485001", "lon": "-84.509399", "ICAO": "CYAM"}}, {"model": "viewer.airport", "pk": 671, "fields": {"name": "Kasabonika Airport", "lat": "53.52470016479492", "lon": "-88.6427993774414", "ICAO": "CYAQ"}}, {"model": "viewer.airport", "pk": 672, "fields": {"name": "Kangirsuk Airport", "lat": "60.027198791503906", "lon": "-69.99919891357422", "ICAO": "CYAS"}}, {"model": "viewer.airport", "pk": 673, "fields": {"name": "Attawapiskat Airport", "lat": "52.9275016784668", "lon": "-82.43190002441406", "ICAO": "CYAT"}}, {"model": "viewer.airport", "pk": 674, "fields": {"name": "Winnipeg / St. Andrews Airport", "lat": "50.0564", "lon": "-97.032501", "ICAO": "CYAV"}}, {"model": "viewer.airport", "pk": 675, "fields": {"name": "Halifax / CFB Shearwater Heliport", "lat": "44.636782", "lon": "-63.502107", "ICAO": "CYAW"}}, {"model": "viewer.airport", "pk": 676, "fields": {"name": "Lac Du Bonnet Airport", "lat": "50.294399", "lon": "-96.010002", "ICAO": "CYAX"}}, {"model": "viewer.airport", "pk": 677, "fields": {"name": "St. Anthony Airport", "lat": "51.3918991089", "lon": "-56.083099365200006", "ICAO": "CYAY"}}, {"model": "viewer.airport", "pk": 678, "fields": {"name": "Tofino / Long Beach Airport", "lat": "49.079833", "lon": "-125.775583", "ICAO": "CYAZ"}}, {"model": "viewer.airport", "pk": 679, "fields": {"name": "Banff Airport", "lat": "51.208222", "lon": "-115.540624", "ICAO": "CYBA"}}, {"model": "viewer.airport", "pk": 680, "fields": {"name": "Kugaaruk Airport", "lat": "68.534401", "lon": "-89.808098", "ICAO": "CYBB"}}, {"model": "viewer.airport", "pk": 681, "fields": {"name": "Baie-Comeau Airport", "lat": "49.1325", "lon": "-68.204399", "ICAO": "CYBC"}}, {"model": "viewer.airport", "pk": 682, "fields": {"name": "Bella Coola Airport", "lat": "52.387501", "lon": "-126.596001", "ICAO": "CYBD"}}, {"model": "viewer.airport", "pk": 683, "fields": {"name": "Uranium City Airport", "lat": "59.5614013671875", "lon": "-108.48100280761719", "ICAO": "CYBE"}}, {"model": "viewer.airport", "pk": 684, "fields": {"name": "Bonnyville Airport", "lat": "54.304199", "lon": "-110.744003", "ICAO": "CYBF"}}, {"model": "viewer.airport", "pk": 685, "fields": {"name": "CFB Bagotville", "lat": "48.33060073852539", "lon": "-70.99639892578125", "ICAO": "CYBG"}}, {"model": "viewer.airport", "pk": 686, "fields": {"name": "Baker Lake Airport", "lat": "64.29889678960001", "lon": "-96.077796936", "ICAO": "CYBK"}}, {"model": "viewer.airport", "pk": 687, "fields": {"name": "Campbell River Airport", "lat": "49.950802", "lon": "-125.271004", "ICAO": "CYBL"}}, {"model": "viewer.airport", "pk": 688, "fields": {"name": "CFB Borden Heliport", "lat": "44.271702", "lon": "-79.912498", "ICAO": "CYBN"}}, {"model": "viewer.airport", "pk": 689, "fields": {"name": "Brooks Regional Airport", "lat": "50.633598", "lon": "-111.926003", "ICAO": "CYBP"}}, {"model": "viewer.airport", "pk": 690, "fields": {"name": "Tadoule Lake Airport", "lat": "58.7061", "lon": "-98.512199", "ICAO": "CYBQ"}}, {"model": "viewer.airport", "pk": 691, "fields": {"name": "Brandon Municipal Airport", "lat": "49.91", "lon": "-99.951897", "ICAO": "CYBR"}}, {"model": "viewer.airport", "pk": 692, "fields": {"name": "Brochet Airport", "lat": "57.8894", "lon": "-101.679001", "ICAO": "CYBT"}}, {"model": "viewer.airport", "pk": 693, "fields": {"name": "Nipawin Airport", "lat": "53.33250045776367", "lon": "-104.00800323486328", "ICAO": "CYBU"}}, {"model": "viewer.airport", "pk": 694, "fields": {"name": "Berens River Airport", "lat": "52.358898", "lon": "-97.018303", "ICAO": "CYBV"}}, {"model": "viewer.airport", "pk": 695, "fields": {"name": "Calgary / Springbank Airport", "lat": "51.1031", "lon": "-114.374001", "ICAO": "CYBW"}}, {"model": "viewer.airport", "pk": 696, "fields": {"name": "Lourdes-de-Blanc-Sablon Airport", "lat": "51.4436", "lon": "-57.185299", "ICAO": "CYBX"}}, {"model": "viewer.airport", "pk": 697, "fields": {"name": "Cartwright Airport", "lat": "53.68280029296875", "lon": "-57.041900634765625", "ICAO": "CYCA"}}, {"model": "viewer.airport", "pk": 698, "fields": {"name": "Cambridge Bay Airport", "lat": "69.1081008911", "lon": "-105.138000488", "ICAO": "CYCB"}}, {"model": "viewer.airport", "pk": 699, "fields": {"name": "Cornwall Regional Airport", "lat": "45.092637", "lon": "-74.567724", "ICAO": "CYCC"}}, {"model": "viewer.airport", "pk": 700, "fields": {"name": "Nanaimo Airport", "lat": "49.05497", "lon": "-123.869863", "ICAO": "CYCD"}}, {"model": "viewer.airport", "pk": 701, "fields": {"name": "Centralia / James T. Field Memorial Aerodrome", "lat": "43.285599", "lon": "-81.508301", "ICAO": "CYCE"}}, {"model": "viewer.airport", "pk": 702, "fields": {"name": "Castlegar/West Kootenay Regional Airport", "lat": "49.2963981628", "lon": "-117.632003784", "ICAO": "CYCG"}}, {"model": "viewer.airport", "pk": 703, "fields": {"name": "Miramichi Airport", "lat": "47.007801", "lon": "-65.449203", "ICAO": "CYCH"}},