[{"model": "viewer.waypoint", "pk": 1, "fields": {"name": "AAAME", "lat": "37.770916666666665", "lon": "-122.08280555555555"}}, {"model": "viewer.waypoint", "pk": 2, "fields": {"name": "AAARN", "lat": "34.2815", "lon": "-85.26816666666666"}}, {"model": "viewer.waypoint", "pk": 3, "fields": {"name": "AACES", "lat": "35.272083333333335", "lon": "-97.14444444444445"}}, {"model": "viewer.waypoint", "pk": 4, "fields": {"name": "AADIE", "lat": "39.88708333333333", "lon": "-86.49233333333333"}}, {"model": "viewer.waypoint", "pk": 5, "fields": {"name": "AADMS", "lat": "42.58541666666667", "lon": "-71.31891666666667"}}, {"model": "viewer.waypoint", "pk": 6, "fields": {"name": "AAHZZ", "lat": "29.730916666666666", "lon": "-95.93166666666667"}}, {"model": "viewer.waypoint", "pk": 7, "fields": {"name": "AAIRE", "lat": "35.146277777777776", "lon": "-81.06230555555555"}}, {"model": "viewer.waypoint", "pk": 8, "fields": {"name": "AAJAY", "lat": "38.93233333333333", "lon": "-84.53963888888889"}}, {"model": "viewer.waypoint", "pk": 9, "fields": {"name": "AAKAY", "lat": "33.634166666666665", "lon": "-84.79330555555555"}}, {"model": "viewer.waypoint", "pk": 10, "fields": {"name": "AALEX", "lat": "33.053555555555555", "lon": "-80.34077777777777"}}, {"model": "viewer.waypoint", "pk": 11, "fields": {"name": "AAMMM", "lat": "36.17386111111111", "lon": "-114.8655"}}, {"model": "viewer.waypoint", "pk": 12, "fields": {"name": "AAMMO", "lat": "42.981500000000004", "lon": "-83.82175"}}, {"model": "viewer.waypoint", "pk": 13, "fields": {"name": "AANAH", "lat": "44.42816666666666", "lon": "-93.322"}}, {"model": "viewer.waypoint", "pk": 14, "fields": {"name": "AANDY", "lat": "41.81973333333334", "lon": "-96.05911666666667"}}, {"model": "viewer.waypoint", "pk": 15, "fields": {"name": "AANDY", "lat": "41.819722222222225", "lon": "-96.05911111111111"}}, {"model": "viewer.waypoint", "pk": 16, "fields": {"name": "AANET", "lat": "38.53077777777778", "lon": "-122.49719444444445"}}, {"model": "viewer.waypoint", "pk": 17, "fields": {"name": "AANTS", "lat": "38.71865555555556", "lon": "-78.46264722222223"}}, {"model": "viewer.waypoint", "pk": 18, "fields": {"name": "AARCH", "lat": "39.093611111111116", "lon": "-89.16250000000001"}}, {"model": "viewer.waypoint", "pk": 19, "fields": {"name": "AARES", "lat": "20.998611111111114", "lon": "-157.095"}}, {"model": "viewer.waypoint", "pk": 20, "fields": {"name": "AARON", "lat": "43.40038888888889", "lon": "-122.70100000000001"}}, {"model": "viewer.waypoint", "pk": 21, "fields": {"name": "AASPN", "lat": "34.26819444444445", "lon": "-117.03266666666667"}}, {"model": "viewer.waypoint", "pk": 22, "fields": {"name": "AATAT", "lat": "33.16722222222222", "lon": "-83.43719444444444"}}, {"model": "viewer.waypoint", "pk": 23, "fields": {"name": "AAYJY", "lat": "33.68555555555555", "lon": "-118.17238888888889"}}, {"model": "viewer.waypoint", "pk": 24, "fields": {"name": "AAYRR", "lat": "46.64683333333333", "lon": "-123.72238888888889"}}, {"model": "viewer.waypoint", "pk": 25, "fields": {"name": "ACAGI", "lat": "40.43227777777778", "lon": "-106.84273333333333"}}, {"model": "viewer.waypoint", "pk": 26, "fields": {"name": "ACAGO", "lat": "39.62119444444445", "lon": "-111.86966666666666"}}, {"model": "viewer.waypoint", "pk": 27, "fields": {"name": "ACAGU", "lat": "36.816205555555555", "lon": "-103.19526388888889"}}, {"model": "viewer.waypoint", "pk": 28, "fields": {"name": "ACAKO", "lat": "47.24790277777778", "lon": "-104.95997222222222"}}, {"model": "viewer.waypoint", "pk": 29, "fields": {"name": "ACATE", "lat": "59.71414722222222", "lon": "-162.55269444444446"}}, {"model": "viewer.waypoint", "pk": 30, "fields": {"name": "ACCRA", "lat": "41.93333333333333", "lon": "-88.01944444444445"}}, {"model": "viewer.waypoint", "pk": 31, "fields": {"name": "ACENE", "lat": "30.53438888888889", "lon": "-81.62130555555555"}}, {"model": "viewer.waypoint", "pk": 32, "fields": {"name": "ACERB", "lat": "35.09894444444445", "lon": "-81.1286111111111"}}, {"model": "viewer.waypoint", "pk": 33, "fields": {"name": "ACFIJ", "lat": "43.213144444444445", "lon": "-113.08352222222221"}}, {"model": "viewer.waypoint", "pk": 34, "fields": {"name": "ACHES", "lat": "37.43588333333333", "lon": "-105.43355555555556"}}, {"model": "viewer.waypoint", "pk": 35, "fields": {"name": "ACIGE", "lat": "60.43980555555555", "lon": "-151.7689"}}, {"model": "viewer.waypoint", "pk": 36, "fields": {"name": "ACINS", "lat": "33.933877777777774", "lon": "-117.16211944444446"}}, {"model": "viewer.waypoint", "pk": 37, "fields": {"name": "ACITO", "lat": "41.39861111111111", "lon": "-88.18333333333334"}}, {"model": "viewer.waypoint", "pk": 38, "fields": {"name": "ACKEE", "lat": "35.18444444444444", "lon": "-87.83422222222222"}}, {"model": "viewer.waypoint", "pk": 39, "fields": {"name": "ACKLY", "lat": "41.109405555555554", "lon": "-91.87716944444443"}}, {"model": "viewer.waypoint", "pk": 40, "fields": {"name": "ACKME", "lat": "33.84755555555556", "lon": "-97.67786111111111"}}, {"model": "viewer.waypoint", "pk": 41, "fields": {"name": "ACLAM", "lat": "36.07509166666667", "lon": "-114.52258611111111"}}, {"model": "viewer.waypoint", "pk": 42, "fields": {"name": "ACLOB", "lat": "42.23965555555556", "lon": "-122.28383055555555"}}, {"model": "viewer.waypoint", "pk": 43, "fields": {"name": "ACMES", "lat": "30.92420277777778", "lon": "-88.36967222222222"}}, {"model": "viewer.waypoint", "pk": 44, "fields": {"name": "ACMIE", "lat": "34.94894444444444", "lon": "-106.67488888888889"}}, {"model": "viewer.waypoint", "pk": 45, "fields": {"name": "ACOLA", "lat": "29.459883333333334", "lon": "-95.50511666666667"}}, {"model": "viewer.waypoint", "pk": 46, "fields": {"name": "ACOMA", "lat": "34.887705555555556", "lon": "-107.42182222222223"}}, {"model": "viewer.waypoint", "pk": 47, "fields": {"name": "ACOMA", "lat": "34.88769444444444", "lon": "-107.42183333333334"}}, {"model": "viewer.waypoint", "pk": 48, "fields": {"name": "ACONI", "lat": "43.48062777777778", "lon": "-123.33078611111111"}}, {"model": "viewer.waypoint", "pk": 49, "fields": {"name": "ACONY", "lat": "18.92736111111111", "lon": "-66.47744444444444"}}, {"model": "viewer.waypoint", "pk": 50, "fields": {"name": "ACORD", "lat": "48.79080833333333", "lon": "-122.53295833333333"}}, {"model": "viewer.waypoint", "pk": 51, "fields": {"name": "ACOSI", "lat": "37.11870833333333", "lon": "-111.53460833333334"}}, {"model": "viewer.waypoint", "pk": 52, "fields": {"name": "ACOVE", "lat": "42.23478333333333", "lon": "-74.03183055555556"}}, {"model": "viewer.waypoint", "pk": 53, "fields": {"name": "ACRAN", "lat": "61.072383333333335", "lon": "-156.49089166666664"}}, {"model": "viewer.waypoint", "pk": 54, "fields": {"name": "ACRAT", "lat": "34.217200000000005", "lon": "-118.97853055555555"}}, {"model": "viewer.waypoint", "pk": 55, "fields": {"name": "ACREW", "lat": "25.910169444444442", "lon": "-97.66259166666667"}}, {"model": "viewer.waypoint", "pk": 56, "fields": {"name": "ACROW", "lat": "38.064416666666666", "lon": "-77.17472222222223"}}, {"model": "viewer.waypoint", "pk": 57, "fields": {"name": "ACSIN", "lat": "35.877833333333335", "lon": "-114.56477777777778"}}, {"model": "viewer.waypoint", "pk": 58, "fields": {"name": "ACTOR", "lat": "39.75575", "lon": "-104.5231111111111"}}, {"model": "viewer.waypoint", "pk": 59, "fields": {"name": "ACUFF", "lat": "32.18150555555555", "lon": "-96.61084166666666"}}, {"model": "viewer.waypoint", "pk": 60, "fields": {"name": "ACYOG", "lat": "44.54688888888889", "lon": "-69.21524444444445"}}, {"model": "viewer.waypoint", "pk": 61, "fields": {"name": "ACZES", "lat": "38.32635555555556", "lon": "-104.88937777777778"}}, {"model": "viewer.waypoint", "pk": 62, "fields": {"name": "ADAAY", "lat": "35.794805555555556", "lon": "-86.23508333333334"}}, {"model": "viewer.waypoint", "pk": 63, "fields": {"name": "ADAIR", "lat": "36.46503888888889", "lon": "-95.23213611111112"}}, {"model": "viewer.waypoint", "pk": 64, "fields": {"name": "ADALE", "lat": "42.853011111111115", "lon": "-86.01099166666667"}}, {"model": "viewer.waypoint", "pk": 65, "fields": {"name": "ADAMM", "lat": "34.017047222222224", "lon": "-117.81681666666667"}}, {"model": "viewer.waypoint", "pk": 66, "fields": {"name": "ADAMM", "lat": "34.01705555555556", "lon": "-117.81680555555555"}}, {"model": "viewer.waypoint", "pk": 67, "fields": {"name": "ADANE", "lat": "38.915905555555554", "lon": "-104.39901666666667"}}, {"model": "viewer.waypoint", "pk": 68, "fields": {"name": "ADANE", "lat": "38.91591666666667", "lon": "-104.39902777777779"}}, {"model": "viewer.waypoint", "pk": 69, "fields": {"name": "ADAXE", "lat": "38.90072222222222", "lon": "-77.06811111111111"}}, {"model": "viewer.waypoint", "pk": 70, "fields": {"name": "ADCOM", "lat": "33.73270277777778", "lon": "-80.92070277777778"}}, {"model": "viewer.waypoint", "pk": 71, "fields": {"name": "ADDAX", "lat": "29.981116666666665", "lon": "-83.99830833333334"}}, {"model": "viewer.waypoint", "pk": 72, "fields": {"name": "ADDDA", "lat": "42.60563888888889", "lon": "-70.78208333333333"}}, {"model": "viewer.waypoint", "pk": 73, "fields": {"name": "ADDEL", "lat": "36.32666666666667", "lon": "-116.07019444444444"}}, {"model": "viewer.waypoint", "pk": 74, "fields": {"name": "ADDMM", "lat": "37.771027777777775", "lon": "-121.70858333333334"}}, {"model": "viewer.waypoint", "pk": 75, "fields": {"name": "ADECY", "lat": "17.938333333333333", "lon": "-66.53080555555556"}}, {"model": "viewer.waypoint", "pk": 76, "fields": {"name": "ADEDY", "lat": "43.051405555555554", "lon": "-99.29481944444444"}}, {"model": "viewer.waypoint", "pk": 77, "fields": {"name": "ADEER", "lat": "37.97099444444444", "lon": "-101.0736111111111"}}, {"model": "viewer.waypoint", "pk": 78, "fields": {"name": "ADEIN", "lat": "36.24975", "lon": "-82.78302777777778"}}, {"model": "viewer.waypoint", "pk": 79, "fields": {"name": "ADEMS", "lat": "32.45375", "lon": "-96.74897222222222"}}, {"model": "viewer.waypoint", "pk": 80, "fields": {"name": "ADENA", "lat": "34.73299166666667", "lon": "-81.54281944444445"}}, {"model": "viewer.waypoint", "pk": 81, "fields": {"name": "ADENA", "lat": "34.733000000000004", "lon": "-81.54283333333333"}}, {"model": "viewer.waypoint", "pk": 82, "fields": {"name": "ADENO", "lat": "45.03064444444444", "lon": "-85.220425"}}, {"model": "viewer.waypoint", "pk": 83, "fields": {"name": "ADERY", "lat": "32.94799999999999", "lon": "-80.12327777777777"}}, {"model": "viewer.waypoint", "pk": 84, "fields": {"name": "ADEXE", "lat": "43.504666666666665", "lon": "-116.44825"}}, {"model": "viewer.waypoint", "pk": 85, "fields": {"name": "ADIBE", "lat": "39.10306666666667", "lon": "-110.73063055555556"}}, {"model": "viewer.waypoint", "pk": 86, "fields": {"name": "ADING", "lat": "29.730594444444442", "lon": "-95.36840555555555"}}, {"model": "viewer.waypoint", "pk": 87, "fields": {"name": "ADINY", "lat": "39.24780555555556", "lon": "-106.88061111111111"}}, {"model": "viewer.waypoint", "pk": 88, "fields": {"name": "ADKOQ", "lat": "26.272166666666667", "lon": "-79.531"}}, {"model": "viewer.waypoint", "pk": 89, "fields": {"name": "ADLOW", "lat": "44.75757222222222", "lon": "-123.19932222222222"}}, {"model": "viewer.waypoint", "pk": 90, "fields": {"name": "ADMIT", "lat": "34.68676111111111", "lon": "-85.53217222222221"}}, {"model": "viewer.waypoint", "pk": 91, "fields": {"name": "ADOBE", "lat": "34.664899999999996", "lon": "-99.56569999999999"}}, {"model": "viewer.waypoint", "pk": 92, "fields": {"name": "ADOJA", "lat": "45.971225000000004", "lon": "-121.36027777777777"}}, {"model": "viewer.waypoint", "pk": 93, "fields": {"name": "ADORE", "lat": "33.90786111111111", "lon": "-118.49113888888888"}}, {"model": "viewer.waypoint", "pk": 94, "fields": {"name": "ADOWN", "lat": "35.43808333333333", "lon": "-81.68219444444445"}}, {"model": "viewer.waypoint", "pk": 95, "fields": {"name": "ADOZO", "lat": "36.405744444444444", "lon": "-104.89934166666667"}}, {"model": "viewer.waypoint", "pk": 96, "fields": {"name": "ADREW", "lat": "69.169675", "lon": "-141.0025361111111"}}, {"model": "viewer.waypoint", "pk": 97, "fields": {"name": "ADRIE", "lat": "42.95827777777778", "lon": "-83.11384444444444"}}, {"model": "viewer.waypoint", "pk": 98, "fields": {"name": "ADRUM", "lat": "40.917969444444445", "lon": "-98.65891944444445"}}, {"model": "viewer.waypoint", "pk": 99, "fields": {"name": "ADUKE", "lat": "31.882430555555555", "lon": "-94.21646666666668"}}, {"model": "viewer.waypoint", "pk": 100, "fields": {"name": "ADVAY", "lat": "39.922980555555554", "lon": "-86.5239"}}, {"model": "viewer.waypoint", "pk": 101, "fields": {"name": "ADWOW", "lat": "35.49305555555556", "lon": "-97.70908333333334"}}, {"model": "viewer.waypoint", "pk": 102, "fields": {"name": "ADYAN", "lat": "33.879222222222225", "lon": "-109.88541666666667"}}, {"model": "viewer.waypoint", "pk": 103, "fields": {"name": "ADYMS", "lat": "46.42616666666667", "lon": "-121.15897222222223"}}, {"model": "viewer.waypoint", "pk": 104, "fields": {"name": "ADYOS", "lat": "35.04763888888888", "lon": "-106.92472222222223"}}, {"model": "viewer.waypoint", "pk": 105, "fields": {"name": "ADZIN", "lat": "33.176941666666664", "lon": "-86.38227777777777"}}, {"model": "viewer.waypoint", "pk": 106, "fields": {"name": "AEJAY", "lat": "33.37475", "lon": "-111.4765"}}, {"model": "viewer.waypoint", "pk": 107, "fields": {"name": "AEROZ", "lat": "30.70375", "lon": "-98.86363888888889"}}, {"model": "viewer.waypoint", "pk": 108, "fields": {"name": "AERRO", "lat": "34.322047222222224", "lon": "-117.03894722222222"}}, {"model": "viewer.waypoint", "pk": 109, "fields": {"name": "AFIVA", "lat": "37.7735", "lon": "-122.37566666666666"}}, {"model": "viewer.waypoint", "pk": 110, "fields": {"name": "AFMAG", "lat": "41.61799444444444", "lon": "-104.73378333333334"}}, {"model": "viewer.waypoint", "pk": 111, "fields": {"name": "AFOXY", "lat": "34.60868333333333", "lon": "-120.16213055555556"}}, {"model": "viewer.waypoint", "pk": 112, "fields": {"name": "AFRUH", "lat": "31.443555555555555", "lon": "-94.72497222222222"}}, {"model": "viewer.waypoint", "pk": 113, "fields": {"name": "AFTEN", "lat": "36.15591111111111", "lon": "-82.53369722222222"}}, {"model": "viewer.waypoint", "pk": 114, "fields": {"name": "AFTYN", "lat": "44.864555555555555", "lon": "-92.79691666666666"}}, {"model": "viewer.waypoint", "pk": 115, "fields": {"name": "AFWAF", "lat": "59.890480555555555", "lon": "-151.40550000000002"}}, {"model": "viewer.waypoint", "pk": 116, "fields": {"name": "AFWOX", "lat": "42.51743888888889", "lon": "-104.60991944444444"}}, {"model": "viewer.waypoint", "pk": 117, "fields": {"name": "AFYAB", "lat": "43.245175", "lon": "-105.73835277777778"}}, {"model": "viewer.waypoint", "pk": 118, "fields": {"name": "AGAIN", "lat": "31.62322222222222", "lon": "-97.97444444444444"}}, {"model": "viewer.waypoint", "pk": 119, "fields": {"name": "AGARD", "lat": "39.04358055555555", "lon": "-76.0697611111111"}}, {"model": "viewer.waypoint", "pk": 120, "fields": {"name": "AGARD", "lat": "39.04358333333333", "lon": "-76.06975"}}, {"model": "viewer.waypoint", "pk": 121, "fields": {"name": "AGASE", "lat": "28.06138888888889", "lon": "-82.83230555555555"}}, {"model": "viewer.waypoint", "pk": 122, "fields": {"name": "AGAZY", "lat": "31.19561388888889", "lon": "-104.13615"}}, {"model": "viewer.waypoint", "pk": 123, "fields": {"name": "AGDOX", "lat": "43.28427111111111", "lon": "-79.10444861111111"}}, {"model": "viewer.waypoint", "pk": 124, "fields": {"name": "AGEME", "lat": "68.18991666666668", "lon": "-152.42475"}}, {"model": "viewer.waypoint", "pk": 125, "fields": {"name": "AGENT", "lat": "39.610800000000005", "lon": "-94.90571111111112"}}, {"model": "viewer.waypoint", "pk": 126, "fields": {"name": "AGEPE", "lat": "62.281075", "lon": "-163.64247777777777"}}, {"model": "viewer.waypoint", "pk": 127, "fields": {"name": "AGEXY", "lat": "38.19103611111111", "lon": "-96.4084388888889"}}, {"model": "viewer.waypoint", "pk": 128, "fields": {"name": "AGGIT", "lat": "29.054772222222223", "lon": "-95.48610833333333"}}, {"model": "viewer.waypoint", "pk": 129, "fields": {"name": "AGGLA", "lat": "33.323638888888894", "lon": "-112.35747222222221"}}, {"model": "viewer.waypoint", "pk": 130, "fields": {"name": "AGIME", "lat": "38.494841666666666", "lon": "-108.42033055555557"}}, {"model": "viewer.waypoint", "pk": 131, "fields": {"name": "AGLOW", "lat": "37.41986111111111", "lon": "-79.19169444444445"}}, {"model": "viewer.waypoint", "pk": 132, "fields": {"name": "AGNEZ", "lat": "42.22575277777778", "lon": "-74.18854166666667"}}, {"model": "viewer.waypoint", "pk": 133, "fields": {"name": "AGNEZ", "lat": "42.225750000000005", "lon": "-74.18855555555555"}}, {"model": "viewer.waypoint", "pk": 134, "fields": {"name": "AGOLE", "lat": "35.759861111111114", "lon": "-78.44802777777778"}}, {"model": "viewer.waypoint", "pk": 135, "fields": {"name": "AGOMA", "lat": "44.585725000000004", "lon": "-87.60358055555555"}}, {"model": "viewer.waypoint", "pk": 136, "fields": {"name": "AGONY", "lat": "41.856861111111115", "lon": "-90.5425"}}, {"model": "viewer.waypoint", "pk": 137, "fields": {"name": "AGOTE", "lat": "34.91930833333333", "lon": "-91.04839722222222"}}, {"model": "viewer.waypoint", "pk": 138, "fields": {"name": "AGOYA", "lat": "26.148888888888887", "lon": "-80.75575"}}, {"model": "viewer.waypoint", "pk": 139, "fields": {"name": "AGPAL", "lat": "54.52647111111111", "lon": "-130.79832583333334"}}, {"model": "viewer.waypoint", "pk": 140, "fields": {"name": "AGRYN", "lat": "48.564730555555556", "lon": "-111.85683611111111"}}, {"model": "viewer.waypoint", "pk": 141, "fields": {"name": "AGUDE", "lat": "45.129355555555556", "lon": "-92.39194166666667"}}, {"model": "viewer.waypoint", "pk": 142, "fields": {"name": "AGUYA", "lat": "37.04325", "lon": "-77.31822222222222"}}, {"model": "viewer.waypoint", "pk": 143, "fields": {"name": "AHABB", "lat": "26.812472222222222", "lon": "-80.00577777777778"}}, {"model": "viewer.waypoint", "pk": 144, "fields": {"name": "AHCIN", "lat": "38.714263888888894", "lon": "-80.095525"}}, {"model": "viewer.waypoint", "pk": 145, "fields": {"name": "AHEHU", "lat": "45.395805555555555", "lon": "-113.89991666666667"}}, {"model": "viewer.waypoint", "pk": 146, "fields": {"name": "AHEIM", "lat": "33.82031388888889", "lon": "-117.91194722222222"}}, {"model": "viewer.waypoint", "pk": 147, "fields": {"name": "AHERN", "lat": "27.177666666666667", "lon": "-80.03105555555555"}}, {"model": "viewer.waypoint", "pk": 148, "fields": {"name": "AHLEX", "lat": "33.88231388888889", "lon": "-116.68959444444445"}}, {"model": "viewer.waypoint", "pk": 149, "fields": {"name": "AHLEX", "lat": "33.882305555555554", "lon": "-116.68958333333333"}}, {"model": "viewer.waypoint", "pk": 150, "fields": {"name": "AHLOU", "lat": "41.65083333333333", "lon": "-88.12444444444444"}}, {"model": "viewer.waypoint", "pk": 151, "fields": {"name": "AHMED", "lat": "41.49769166666667", "lon": "-88.864525"}}, {"model": "viewer.waypoint", "pk": 152, "fields": {"name": "AHMIT", "lat": "44.49794166666667", "lon": "-93.19518055555555"}}, {"model": "viewer.waypoint", "pk": 153, "fields": {"name": "AHOEY", "lat": "35.01007777777778", "lon": "-80.09886944444445"}}, {"model": "viewer.waypoint", "pk": 154, "fields": {"name": "AHONE", "lat": "37.484027777777776", "lon": "-78.07177777777777"}}, {"model": "viewer.waypoint", "pk": 155, "fields": {"name": "AHOWW", "lat": "37.12071111111111", "lon": "-113.1927888888889"}}, {"model": "viewer.waypoint", "pk": 156, "fields": {"name": "AHOYE", "lat": "36.75219444444444", "lon": "-88.96270833333334"}}, {"model": "viewer.waypoint", "pk": 157, "fields": {"name": "AHPAH", "lat": "43.305277777777775", "lon": "-78.12641944444444"}}, {"model": "viewer.waypoint", "pk": 158, "fields": {"name": "AHRON", "lat": "43.673361111111106", "lon": "-70.20558333333334"}}, {"model": "viewer.waypoint", "pk": 159, "fields": {"name": "AHSTN", "lat": "41.71266666666667", "lon": "-88.35733333333333"}}, {"model": "viewer.waypoint", "pk": 160, "fields": {"name": "AHTIY", "lat": "39.914402777777774", "lon": "-80.38478611111111"}}, {"model": "viewer.waypoint", "pk": 161, "fields": {"name": "AHTIY", "lat": "39.91441666666667", "lon": "-80.38477777777778"}}, {"model": "viewer.waypoint", "pk": 162, "fields": {"name": "AHVUH", "lat": "64.41958333333334", "lon": "-156.55771944444444"}}, {"model": "viewer.waypoint", "pk": 163, "fields": {"name": "AILES", "lat": "44.807538888888885", "lon": "-83.651425"}}, {"model": "viewer.waypoint", "pk": 164, "fields": {"name": "AILEY", "lat": "32.297180555555556", "lon": "-82.66820277777778"}}, {"model": "viewer.waypoint", "pk": 165, "fields": {"name": "AILEY", "lat": "32.29719444444444", "lon": "-82.66819444444445"}}, {"model": "viewer.waypoint", "pk": 166, "fields": {"name": "AIMES", "lat": "40.58714722222223", "lon": "-104.54728888888889"}}, {"model": "viewer.waypoint", "pk": 167, "fields": {"name": "AINKK", "lat": "61.168277777777774", "lon": "-150.5213888888889"}}, {"model": "viewer.waypoint", "pk": 168, "fields": {"name": "AIRCO", "lat": "43.21018333333333", "lon": "-78.4825"}}, {"model": "viewer.waypoint", "pk": 169, "fields": {"name": "AIRRA", "lat": "41.10457777777778", "lon": "-80.0635361111111"}}, {"model": "viewer.waypoint", "pk": 170, "fields": {"name": "AIRRE", "lat": "33.89230555555555", "lon": "-96.06575"}}, {"model": "viewer.waypoint", "pk": 171, "fields": {"name": "AJAHO", "lat": "33.11265", "lon": "-99.05576388888889"}}, {"model": "viewer.waypoint", "pk": 172, "fields": {"name": "AJAXX", "lat": "39.50779722222222", "lon": "-107.00534166666667"}}, {"model": "viewer.waypoint", "pk": 173, "fields": {"name": "AJAYS", "lat": "40.579994444444445", "lon": "-85.29945555555555"}}, {"model": "viewer.waypoint", "pk": 174, "fields": {"name": "AJFEB", "lat": "33.64035", "lon": "-84.17047777777778"}}, {"model": "viewer.waypoint", "pk": 175, "fields": {"name": "AJGON", "lat": "39.92793333333333", "lon": "-73.88919722222222"}}, {"model": "viewer.waypoint", "pk": 176, "fields": {"name": "AJGUB", "lat": "45.32537777777778", "lon": "-67.69279444444444"}}, {"model": "viewer.waypoint", "pk": 177, "fields": {"name": "AJJAY", "lat": "43.72793055555556", "lon": "-69.60228333333333"}}, {"model": "viewer.waypoint", "pk": 178, "fields": {"name": "AJJAY", "lat": "43.72794444444445", "lon": "-69.60227777777777"}}, {"model": "viewer.waypoint", "pk": 179, "fields": {"name": "AKACU", "lat": "31.345555555555553", "lon": "-110.85499999999999"}}, {"model": "viewer.waypoint", "pk": 180, "fields": {"name": "AKADE", "lat": "31.722111111111108", "lon": "-106.31794444444444"}}, {"model": "viewer.waypoint", "pk": 181, "fields": {"name": "AKASE", "lat": "32.05866666666667", "lon": "-105.77405555555555"}}, {"model": "viewer.waypoint", "pk": 182, "fields": {"name": "AKAYI", "lat": "33.97083333333334", "lon": "-90.45716388888889"}}, {"model": "viewer.waypoint", "pk": 183, "fields": {"name": "AKBAR", "lat": "39.39094444444444", "lon": "-88.04880555555556"}}, {"model": "viewer.waypoint", "pk": 184, "fields": {"name": "AKELL", "lat": "38.5345", "lon": "-78.2955"}}, {"model": "viewer.waypoint", "pk": 185, "fields": {"name": "AKELT", "lat": "62.015525", "lon": "-165.09410555555556"}}, {"model": "viewer.waypoint", "pk": 186, "fields": {"name": "AKGAS", "lat": "61.00928611111111", "lon": "-154.69239444444446"}}, {"model": "viewer.waypoint", "pk": 187, "fields": {"name": "AKINS", "lat": "35.46794444444445", "lon": "-94.67631666666666"}}, {"model": "viewer.waypoint", "pk": 188, "fields": {"name": "AKKIF", "lat": "47.629333333333335", "lon": "-96.51656388888888"}}, {"model": "viewer.waypoint", "pk": 189, "fields": {"name": "AKMAX", "lat": "62.257527777777774", "lon": "-151.80744444444446"}}, {"model": "viewer.waypoint", "pk": 190, "fields": {"name": "AKMIE", "lat": "40.71077777777778", "lon": "-88.49113888888888"}}, {"model": "viewer.waypoint", "pk": 191, "fields": {"name": "AKRAW", "lat": "61.230872222222224", "lon": "-145.583975"}}, {"model": "viewer.waypoint", "pk": 192, "fields": {"name": "AKSAR", "lat": "40.159277777777774", "lon": "-80.28744722222223"}}, {"model": "viewer.waypoint", "pk": 193, "fields": {"name": "AKTEA", "lat": "59.95863888888889", "lon": "-151.43925000000002"}}, {"model": "viewer.waypoint", "pk": 194, "fields": {"name": "AKUKY", "lat": "44.32666666666667", "lon": "-119.47770277777778"}}, {"model": "viewer.waypoint", "pk": 195, "fields": {"name": "AKUME", "lat": "34.929491666666664", "lon": "-96.11273888888888"}}, {"model": "viewer.waypoint", "pk": 196, "fields": {"name": "AKUMY", "lat": "67.90778611111112", "lon": "-152.5834888888889"}}, {"model": "viewer.waypoint", "pk": 197, "fields": {"name": "AKUMY", "lat": "67.90777777777778", "lon": "-152.58350000000002"}}, {"model": "viewer.waypoint", "pk": 198, "fields": {"name": "AKUNA", "lat": "33.450694444444444", "lon": "-96.82313888888889"}}, {"model": "viewer.waypoint", "pk": 199, "fields": {"name": "AKXUT", "lat": "30.910469444444445", "lon": "-89.24429444444445"}}, {"model": "viewer.waypoint", "pk": 200, "fields": {"name": "ALADN", "lat": "29.068183333333334", "lon": "-82.071525"}}, {"model": "viewer.waypoint", "pk": 201, "fields": {"name": "ALADN", "lat": "29.068194444444444", "lon": "-82.07152777777777"}}, {"model": "viewer.waypoint", "pk": 202, "fields": {"name": "ALADY", "lat": "35.43672222222222", "lon": "-83.25733333333334"}}, {"model": "viewer.waypoint", "pk": 203, "fields": {"name": "ALANA", "lat": "21.075327777777776", "lon": "-157.93908611111112"}}, {"model": "viewer.waypoint", "pk": 204, "fields": {"name": "ALAND", "lat": "40.23256111111111", "lon": "-89.30397222222221"}}, {"model": "viewer.waypoint", "pk": 205, "fields": {"name": "ALANN", "lat": "35.59666666666667", "lon": "-125.94"}}, {"model": "viewer.waypoint", "pk": 206, "fields": {"name": "ALASK", "lat": "16.836916666666667", "lon": "-66.53752777777778"}}, {"model": "viewer.waypoint", "pk": 207, "fields": {"name": "ALBAS", "lat": "33.59963333333334", "lon": "-118.07782222222222"}}, {"model": "viewer.waypoint", "pk": 208, "fields": {"name": "ALBAS", "lat": "33.59963888888889", "lon": "-118.07783333333333"}}, {"model": "viewer.waypoint", "pk": 209, "fields": {"name": "ALBEK", "lat": "39.77775555555556", "lon": "-74.90721944444445"}}, {"model": "viewer.waypoint", "pk": 210, "fields": {"name": "ALBER", "lat": "34.37275", "lon": "-86.32724166666667"}}, {"model": "viewer.waypoint", "pk": 211, "fields": {"name": "ALBIN", "lat": "41.46776388888889", "lon": "-104.29399444444444"}}, {"model": "viewer.waypoint", "pk": 212, "fields": {"name": "ALBRT", "lat": "40.841413888888894", "lon": "-92.22828333333334"}}, {"model": "viewer.waypoint", "pk": 213, "fields": {"name": "ALCOA", "lat": "37.83325000000001", "lon": "-125.83452777777778"}}, {"model": "viewer.waypoint", "pk": 214, "fields": {"name": "ALCOR", "lat": "36.39637222222222", "lon": "-97.32634722222222"}}, {"model": "viewer.waypoint", "pk": 215, "fields": {"name": "ALCOS", "lat": "42.79076388888889", "lon": "-106.57649166666667"}}, {"model": "viewer.waypoint", "pk": 216, "fields": {"name": "ALCOS", "lat": "42.79077777777778", "lon": "-106.5765"}}, {"model": "viewer.waypoint", "pk": 217, "fields": {"name": "ALCOV", "lat": "39.94775", "lon": "-86.04305555555555"}}, {"model": "viewer.waypoint", "pk": 218, "fields": {"name": "ALDAN", "lat": "36.397933333333334", "lon": "-78.93412777777777"}}, {"model": "viewer.waypoint", "pk": 219, "fields": {"name": "ALDAN", "lat": "36.39794444444444", "lon": "-78.9341388888889"}}, {"model": "viewer.waypoint", "pk": 220, "fields": {"name": "ALDER", "lat": "46.821561111111116", "lon": "-122.41421944444446"}}, {"model": "viewer.waypoint", "pk": 221, "fields": {"name": "ALDOH", "lat": "35.70921666666667", "lon": "-81.30036388888888"}}, {"model": "viewer.waypoint", "pk": 222, "fields": {"name": "ALEAN", "lat": "36.73185277777778", "lon": "-81.62393888888889"}}, {"model": "viewer.waypoint", "pk": 223, "fields": {"name": "ALEEE", "lat": "41.00782777777778", "lon": "-80.53171111111111"}}, {"model": "viewer.waypoint", "pk": 224, "fields": {"name": "ALEEN", "lat": "45.67178055555555", "lon": "-92.22769166666667"}}, {"model": "viewer.waypoint", "pk": 225, "fields": {"name": "ALEEX", "lat": "38.98397222222222", "lon": "-77.15847222222223"}}, {"model": "viewer.waypoint", "pk": 226, "fields": {"name": "ALENN", "lat": "37.95975", "lon": "-87.66480555555556"}}, {"model": "viewer.waypoint", "pk": 227, "fields": {"name": "ALENS", "lat": "45.567394444444446", "lon": "-101.41718611111112"}}, {"model": "viewer.waypoint", "pk": 228, "fields": {"name": "ALEUT", "lat": "54.23793888888889", "lon": "-166.54772777777777"}}, {"model": "viewer.waypoint", "pk": 229, "fields": {"name": "ALEXX", "lat": "34.93863333333333", "lon": "-97.74271388888889"}}, {"model": "viewer.waypoint", "pk": 230, "fields": {"name": "ALEYS", "lat": "33.29669444444444", "lon": "-112.04905555555555"}}, {"model": "viewer.waypoint", "pk": 231, "fields": {"name": "ALFOR", "lat": "44.30825833333333", "lon": "-123.15199444444445"}}, {"model": "viewer.waypoint", "pk": 232, "fields": {"name": "ALGTR", "lat": "35.93335277777778", "lon": "-76.0659861111111"}}, {"model": "viewer.waypoint", "pk": 233, "fields": {"name": "ALHAH", "lat": "39.451280555555556", "lon": "-91.74072777777778"}}, {"model": "viewer.waypoint", "pk": 234, "fields": {"name": "ALIAN", "lat": "32.68722222222222", "lon": "-99.22311111111111"}}, {"model": "viewer.waypoint", "pk": 235, "fields": {"name": "ALIBY", "lat": "31.921283333333335", "lon": "-107.77891944444444"}}, {"model": "viewer.waypoint", "pk": 236, "fields": {"name": "ALICA", "lat": "21.582277777777776", "lon": "-153.38544444444443"}}, {"model": "viewer.waypoint", "pk": 237, "fields": {"name": "ALICE", "lat": "32.984430555555555", "lon": "-87.93668333333333"}}, {"model": "viewer.waypoint", "pk": 238, "fields": {"name": "ALIEF", "lat": "28.68713888888889", "lon": "-96.73841666666667"}}, {"model": "viewer.waypoint", "pk": 239, "fields": {"name": "ALIEH", "lat": "43.72302777777778", "lon": "-70.8063611111111"}}, {"model": "viewer.waypoint", "pk": 240, "fields": {"name": "ALIEN", "lat": "59.68518888888889", "lon": "-164.68182222222222"}}, {"model": "viewer.waypoint", "pk": 241, "fields": {"name": "ALING", "lat": "37.39906111111111", "lon": "-89.51377777777778"}}, {"model": "viewer.waypoint", "pk": 242, "fields": {"name": "ALISE", "lat": "40.247416666666666", "lon": "-105.26519444444445"}}, {"model": "viewer.waypoint", "pk": 243, "fields": {"name": "ALISS", "lat": "30.263805555555557", "lon": "-99.34722222222221"}}, {"model": "viewer.waypoint", "pk": 244, "fields": {"name": "ALIXX", "lat": "41.18136111111111", "lon": "-73.39302777777779"}}, {"model": "viewer.waypoint", "pk": 245, "fields": {"name": "ALIYA", "lat": "30.55748611111111", "lon": "-91.40567777777778"}}, {"model": "viewer.waypoint", "pk": 246, "fields": {"name": "ALKAL", "lat": "43.01620833333333", "lon": "-115.32812777777778"}}, {"model": "viewer.waypoint", "pk": 247, "fields": {"name": "ALKEM", "lat": "29.80777777777778", "lon": "-104.58694444444444"}}, {"model": "viewer.waypoint", "pk": 248, "fields": {"name": "ALKIA", "lat": "47.621027777777776", "lon": "-122.47422222222222"}}, {"model": "viewer.waypoint", "pk": 249, "fields": {"name": "ALLAN", "lat": "40.42296111111111", "lon": "-105.51925555555556"}}, {"model": "viewer.waypoint", "pk": 250, "fields": {"name": "ALLAN", "lat": "40.42297222222222", "lon": "-105.51925"}}, {"model": "viewer.waypoint", "pk": 251, "fields": {"name": "ALLCO", "lat": "41.7385", "lon": "-80.08149999999999"}}, {"model": "viewer.waypoint", "pk": 252, "fields": {"name": "ALLIS", "lat": "33.449216666666665", "lon": "-112.62545555555555"}}, {"model": "viewer.waypoint", "pk": 253, "fields": {"name": "ALLLY", "lat": "29.660277777777775", "lon": "-95.42541666666668"}}, {"model": "viewer.waypoint", "pk": 254, "fields": {"name": "ALLMO", "lat": "31.93926111111111", "lon": "-96.24780555555556"}}, {"model": "viewer.waypoint", "pk": 255, "fields": {"name": "ALLMO", "lat": "31.93925", "lon": "-96.24780555555556"}}, {"model": "viewer.waypoint", "pk": 256, "fields": {"name": "ALLNT", "lat": "38.75083333333333", "lon": "-90.51908333333333"}}, {"model": "viewer.waypoint", "pk": 257, "fields": {"name": "ALLOE", "lat": "39.912124999999996", "lon": "-87.17844166666667"}}, {"model": "viewer.waypoint", "pk": 258, "fields": {"name": "ALLOT", "lat": "44.976725", "lon": "-99.15560555555557"}}, {"model": "viewer.waypoint", "pk": 259, "fields": {"name": "ALLXX", "lat": "37.72961111111111", "lon": "-122.06427777777778"}}, {"model": "viewer.waypoint", "pk": 260, "fields": {"name": "ALLYN", "lat": "31.822477777777777", "lon": "-102.67564444444444"}}, {"model": "viewer.waypoint", "pk": 261, "fields": {"name": "ALMAS", "lat": "39.03717777777778", "lon": "-96.57860277777777"}}, {"model": "viewer.waypoint", "pk": 262, "fields": {"name": "ALMAY", "lat": "44.058575", "lon": "-93.58502777777777"}}, {"model": "viewer.waypoint", "pk": 263, "fields": {"name": "ALMDN", "lat": "37.45733333333334", "lon": "-121.75563888888888"}}, {"model": "viewer.waypoint", "pk": 264, "fields": {"name": "ALMON", "lat": "32.38355", "lon": "-111.49475833333334"}}, {"model": "viewer.waypoint", "pk": 265, "fields": {"name": "ALMOT", "lat": "63.45086944444445", "lon": "-161.8036638888889"}}, {"model": "viewer.waypoint", "pk": 266, "fields": {"name": "ALMST", "lat": "34.740500000000004", "lon": "-119.34952777777778"}}, {"model": "viewer.waypoint", "pk": 267, "fields": {"name": "ALOCA", "lat": "23.13361111111111", "lon": "-157.08333333333334"}}, {"model": "viewer.waypoint", "pk": 268, "fields": {"name": "ALOCK", "lat": "42.59008611111111", "lon": "-93.42873055555556"}}, {"model": "viewer.waypoint", "pk": 269, "fields": {"name": "ALOMY", "lat": "38.083083333333335", "lon": "-86.1018611111111"}}, {"model": "viewer.waypoint", "pk": 270, "fields": {"name": "ALONI", "lat": "44.64833333333333", "lon": "-75.65277777777779"}}, {"model": "viewer.waypoint", "pk": 271, "fields": {"name": "ALOON", "lat": "32.06995277777778", "lon": "-86.52823055555555"}}, {"model": "viewer.waypoint", "pk": 272, "fields": {"name": "ALPHE", "lat": "42.4359", "lon": "-84.50991666666667"}}, {"model": "viewer.waypoint", "pk": 273, "fields": {"name": "ALPHE", "lat": "42.43588888888888", "lon": "-84.50991666666667"}}, {"model": "viewer.waypoint", "pk": 274, "fields": {"name": "ALPIN", "lat": "38.81497222222222", "lon": "-119.71088888888889"}}, {"model": "viewer.waypoint", "pk": 275, "fields": {"name": "ALPOE", "lat": "40.957930555555556", "lon": "-106.3158111111111"}}, {"model": "viewer.waypoint", "pk": 276, "fields": {"name": "ALPOE", "lat": "40.95794444444445", "lon": "-106.31580555555556"}}, {"model": "viewer.waypoint", "pk": 277, "fields": {"name": "ALPSE", "lat": "48.166666666666664", "lon": "-122.08333333333333"}}, {"model": "viewer.waypoint", "pk": 278, "fields": {"name": "ALQUE", "lat": "41.56411111111111", "lon": "-88.11466666666666"}}, {"model": "viewer.waypoint", "pk": 279, "fields": {"name": "ALRGI", "lat": "29.52986111111111", "lon": "-98.34033333333333"}}, {"model": "viewer.waypoint", "pk": 280, "fields": {"name": "ALROE", "lat": "27.786416666666668", "lon": "-83.00805555555556"}}, {"model": "viewer.waypoint", "pk": 281, "fields": {"name": "ALTAM", "lat": "37.812172222222216", "lon": "-121.74709444444444"}}, {"model": "viewer.waypoint", "pk": 282, "fields": {"name": "ALTAM", "lat": "37.81216666666666", "lon": "-121.74708333333334"}}, {"model": "viewer.waypoint", "pk": 283, "fields": {"name": "ALTEW", "lat": "63.550663888888884", "lon": "-144.83806111111113"}}, {"model": "viewer.waypoint", "pk": 284, "fields": {"name": "ALTEY", "lat": "59.58009722222223", "lon": "-160.05217222222223"}}, {"model": "viewer.waypoint", "pk": 285, "fields": {"name": "ALTON", "lat": "47.03191388888889", "lon": "-114.428375"}}, {"model": "viewer.waypoint", "pk": 286, "fields": {"name": "ALTTA", "lat": "36.552474999999994", "lon": "-119.32679166666667"}}, {"model": "viewer.waypoint", "pk": 287, "fields": {"name": "ALTTA", "lat": "36.55247222222222", "lon": "-119.32680555555555"}}, {"model": "viewer.waypoint", "pk": 288, "fields": {"name": "ALUGE", "lat": "40.04740833333333", "lon": "-90.92893333333333"}}, {"model": "viewer.waypoint", "pk": 289, "fields": {"name": "ALUPE", "lat": "59.882511111111114", "lon": "-154.6514"}}, {"model": "viewer.waypoint", "pk": 290, "fields": {"name": "ALVAA", "lat": "44.49955555555556", "lon": "-104.69705555555556"}}, {"model": "viewer.waypoint", "pk": 291, "fields": {"name": "ALVIL", "lat": "44.132355555555556", "lon": "-108.20726944444445"}}, {"model": "viewer.waypoint", "pk": 292, "fields": {"name": "ALVIN", "lat": "30.150119444444442", "lon": "-83.07086111111111"}}, {"model": "viewer.waypoint", "pk": 293, "fields": {"name": "ALVNN", "lat": "29.301222222222222", "lon": "-96.41169444444445"}}, {"model": "viewer.waypoint", "pk": 294, "fields": {"name": "ALVUS", "lat": "46.363883333333334", "lon": "-84.21671388888889"}}, {"model": "viewer.waypoint", "pk": 295, "fields": {"name": "ALWYS", "lat": "37.63341666666667", "lon": "-120.95944444444444"}}, {"model": "viewer.waypoint", "pk": 296, "fields": {"name": "ALWYZ", "lat": "38.98352777777778", "lon": "-77.65458333333333"}}, {"model": "viewer.waypoint", "pk": 297, "fields": {"name": "ALYSA", "lat": "35.09436111111111", "lon": "-81.94152777777778"}}, {"model": "viewer.waypoint", "pk": 298, "fields": {"name": "ALYSN", "lat": "34.51888888888889", "lon": "-118.47580555555555"}}, {"model": "viewer.waypoint", "pk": 299, "fields": {"name": "AMALE", "lat": "39.95453055555556", "lon": "-82.15205"}}, {"model": "viewer.waypoint", "pk": 300, "fields": {"name": "AMANY", "lat": "34.93566666666666", "lon": "-118.79816666666666"}}, {"model": "viewer.waypoint", "pk": 301, "fields": {"name": "AMAPO", "lat": "32.083197222222225", "lon": "-84.32330277777777"}}, {"model": "viewer.waypoint", "pk": 302, "fields": {"name": "AMARG", "lat": "39.21908055555556", "lon": "-85.42864722222222"}}, {"model": "viewer.waypoint", "pk": 303, "fields": {"name": "AMBRR", "lat": "33.29102777777778", "lon": "-112.34724999999999"}}, {"model": "viewer.waypoint", "pk": 304, "fields": {"name": "AMEKE", "lat": "48.19452777777777", "lon": "-122.35736666666666"}}, {"model": "viewer.waypoint", "pk": 305, "fields": {"name": "AMERE", "lat": "35.904891666666664", "lon": "-112.38270833333333"}}, {"model": "viewer.waypoint", "pk": 306, "fields": {"name": "AMERY", "lat": "19.95508611111111", "lon": "-156.4091611111111"}}, {"model": "viewer.waypoint", "pk": 307, "fields": {"name": "AMFAL", "lat": "42.76574166666666", "lon": "-112.83462222222222"}}, {"model": "viewer.waypoint", "pk": 308, "fields": {"name": "AMISH", "lat": "39.94253333333333", "lon": "-77.62614722222222"}}, {"model": "viewer.waypoint", "pk": 309, "fields": {"name": "AMMAJ", "lat": "45.320972222222224", "lon": "-97.68094444444445"}}, {"model": "viewer.waypoint", "pk": 310, "fields": {"name": "AMMBR", "lat": "45.43013611111111", "lon": "-93.70085555555556"}}, {"model": "viewer.waypoint", "pk": 311, "fields": {"name": "AMMMO", "lat": "28.58888888888889", "lon": "-96.55344444444444"}}, {"model": "viewer.waypoint", "pk": 312, "fields": {"name": "AMMOR", "lat": "32.804472222222216", "lon": "-115.9413888888889"}}, {"model": "viewer.waypoint", "pk": 313, "fields": {"name": "AMMOT", "lat": "39.19869444444444", "lon": "-84.87194444444444"}}, {"model": "viewer.waypoint", "pk": 314, "fields": {"name": "AMOME", "lat": "43.48169444444444", "lon": "-114.27416666666666"}}, {"model": "viewer.waypoint", "pk": 315, "fields": {"name": "AMONT", "lat": "35.183811111111105", "lon": "-118.75538055555556"}}, {"model": "viewer.waypoint", "pk": 316, "fields": {"name": "AMOTT", "lat": "60.87405277777778", "lon": "-151.37322222222224"}}, {"model": "viewer.waypoint", "pk": 317, "fields": {"name": "AMPLE", "lat": "46.122302777777776", "lon": "-119.66056666666667"}}, {"model": "viewer.waypoint", "pk": 318, "fields": {"name": "AMRRA", "lat": "34.977361111111115", "lon": "-106.97386111111112"}}, {"model": "viewer.waypoint", "pk": 319, "fields": {"name": "AMRST", "lat": "41.24505555555556", "lon": "-82.98883333333333"}}, {"model": "viewer.waypoint", "pk": 320, "fields": {"name": "AMRTN", "lat": "38.88452777777778", "lon": "-76.33266666666667"}}, {"model": "viewer.waypoint", "pk": 321, "fields": {"name": "AMRVR", "lat": "38.78286111111111", "lon": "-120.1931388888889"}}, {"model": "viewer.waypoint", "pk": 322, "fields": {"name": "AMSAW", "lat": "27.435388888888887", "lon": "-82.10138888888888"}}, {"model": "viewer.waypoint", "pk": 323, "fields": {"name": "AMTRA", "lat": "34.07295555555556", "lon": "-118.12815277777777"}}, {"model": "viewer.waypoint", "pk": 324, "fields": {"name": "AMUCK", "lat": "40.34763888888889", "lon": "-105.12088888888889"}}, {"model": "viewer.waypoint", "pk": 325, "fields": {"name": "AMUKI", "lat": "29.516111111111112", "lon": "-104.29416666666667"}}, {"model": "viewer.waypoint", "pk": 326, "fields": {"name": "AMUSE", "lat": "30.45644722222222", "lon": "-98.29418888888888"}}, {"model": "viewer.waypoint", "pk": 327, "fields": {"name": "AMWAY", "lat": "40.63330555555556", "lon": "-103.18361111111112"}}, {"model": "viewer.waypoint", "pk": 328, "fields": {"name": "AMYLU", "lat": "33.787638888888885", "lon": "-79.23783333333333"}}, {"model": "viewer.waypoint", "pk": 329, "fields": {"name": "AMZAR", "lat": "26.66061111111111", "lon": "-79.54788888888889"}}, {"model": "viewer.waypoint", "pk": 330, "fields": {"name": "ANABL", "lat": "39.50443888888889", "lon": "-74.72614444444444"}}, {"model": "viewer.waypoint", "pk": 331, "fields": {"name": "ANAHO", "lat": "39.96110277777778", "lon": "-119.41563888888889"}}, {"model": "viewer.waypoint", "pk": 332, "fields": {"name": "ANAJE", "lat": "41.457369444444446", "lon": "-124.3556"}}, {"model": "viewer.waypoint", "pk": 333, "fields": {"name": "ANALE", "lat": "47.743725", "lon": "-110.40951944444446"}}, {"model": "viewer.waypoint", "pk": 334, "fields": {"name": "ANCHR", "lat": "40.470222222222226", "lon": "-103.84972222222221"}}, {"model": "viewer.waypoint", "pk": 335, "fields": {"name": "ANCOR", "lat": "43.99775", "lon": "-69.11752777777777"}}, {"model": "viewer.waypoint", "pk": 336, "fields": {"name": "ANCRR", "lat": "39.031166666666664", "lon": "-76.72877777777778"}}, {"model": "viewer.waypoint", "pk": 337, "fields": {"name": "ANDDE", "lat": "44.97502222222222", "lon": "-92.68337777777778"}}, {"model": "viewer.waypoint", "pk": 338, "fields": {"name": "ANDDI", "lat": "61.100944444444444", "lon": "-150.30522222222223"}}, {"model": "viewer.waypoint", "pk": 339, "fields": {"name": "ANDES", "lat": "19.82811388888889", "lon": "-156.21443888888888"}}, {"model": "viewer.waypoint", "pk": 340, "fields": {"name": "ANDIY", "lat": "33.630944444444445", "lon": "-84.86294444444444"}}, {"model": "viewer.waypoint", "pk": 341, "fields": {"name": "ANDRO", "lat": "28.049194444444446", "lon": "-81.88569444444445"}}, {"model": "viewer.waypoint", "pk": 342, "fields": {"name": "ANDYS", "lat": "34.37075", "lon": "-81.14383611111111"}}, {"model": "viewer.waypoint", "pk": 343, "fields": {"name": "ANEEL", "lat": "32.393591666666666", "lon": "-102.8460361111111"}}, {"model": "viewer.waypoint", "pk": 344, "fields": {"name": "ANEKE", "lat": "36.242694444444446", "lon": "-105.23475"}}, {"model": "viewer.waypoint", "pk": 345, "fields": {"name": "ANESE", "lat": "61.962522222222226", "lon": "-162.4441"}}, {"model": "viewer.waypoint", "pk": 346, "fields": {"name": "ANEWA", "lat": "41.61168333333333", "lon": "-83.60579444444444"}}, {"model": "viewer.waypoint", "pk": 347, "fields": {"name": "ANEYI", "lat": "40.703500000000005", "lon": "-112.31493888888889"}}, {"model": "viewer.waypoint", "pk": 348, "fields": {"name": "ANGEE", "lat": "27.467936111111108", "lon": "-80.14835000000001"}}, {"model": "viewer.waypoint", "pk": 349, "fields": {"name": "ANGIF", "lat": "37.36394444444445", "lon": "-121.84858333333332"}}, {"model": "viewer.waypoint", "pk": 350, "fields": {"name": "ANGIL", "lat": "47.964555555555556", "lon": "-114.1579138888889"}}, {"model": "viewer.waypoint", "pk": 351, "fields": {"name": "ANGOO", "lat": "46.27706388888889", "lon": "-121.229575"}}, {"model": "viewer.waypoint", "pk": 352, "fields": {"name": "ANGRE", "lat": "32.93702777777777", "lon": "-79.93055555555556"}}, {"model": "viewer.waypoint", "pk": 353, "fields": {"name": "ANGRI", "lat": "34.34991666666667", "lon": "-82.6443888888889"}}, {"model": "viewer.waypoint", "pk": 354, "fields": {"name": "ANGST", "lat": "32.19694444444444", "lon": "-98.46372222222223"}}, {"model": "viewer.waypoint", "pk": 355, "fields": {"name": "ANIAK", "lat": "61.61728333333333", "lon": "-159.63128055555558"}}, {"model": "viewer.waypoint", "pk": 356, "fields": {"name": "ANIER", "lat": "43.59296666666667", "lon": "-71.65461944444445"}}, {"model": "viewer.waypoint", "pk": 357, "fields": {"name": "ANIMA", "lat": "31.916024999999998", "lon": "-108.51425833333333"}}, {"model": "viewer.waypoint", "pk": 358, "fields": {"name": "ANIUM", "lat": "38.453775", "lon": "-109.77618333333334"}}, {"model": "viewer.waypoint", "pk": 359, "fields": {"name": "ANJEE", "lat": "36.74627777777778", "lon": "-121.9648888888889"}}, {"model": "viewer.waypoint", "pk": 360, "fields": {"name": "ANJLL", "lat": "34.211194444444445", "lon": "-116.98277777777778"}}, {"model": "viewer.waypoint", "pk": 361, "fields": {"name": "ANKEN", "lat": "41.729572222222224", "lon": "-93.59363333333333"}}, {"model": "viewer.waypoint", "pk": 362, "fields": {"name": "ANKRR", "lat": "27.682111111111112", "lon": "-93.2003888888889"}}, {"model": "viewer.waypoint", "pk": 363, "fields": {"name": "ANMAR", "lat": "40.26638888888889", "lon": "-75.32527777777777"}}, {"model": "viewer.waypoint", "pk": 364, "fields": {"name": "ANNAN", "lat": "33.45840555555556", "lon": "-82.742775"}}, {"model": "viewer.waypoint", "pk": 365, "fields": {"name": "ANNAN", "lat": "33.45841666666667", "lon": "-82.74277777777777"}}, {"model": "viewer.waypoint", "pk": 366, "fields": {"name": "ANNEI", "lat": "41.28606388888889", "lon": "-73.2559"}}, {"model": "viewer.waypoint", "pk": 367, "fields": {"name": "ANNEM", "lat": "46.69481111111111", "lon": "-111.51281388888889"}}, {"model": "viewer.waypoint", "pk": 368, "fields": {"name": "ANNEY", "lat": "26.465666666666667", "lon": "-80.04944444444445"}}, {"model": "viewer.waypoint", "pk": 369, "fields": {"name": "ANNII", "lat": "38.88130555555556", "lon": "-90.38955555555556"}}, {"model": "viewer.waypoint", "pk": 370, "fields": {"name": "ANNTI", "lat": "33.87975", "lon": "-112.05313888888888"}}, {"model": "viewer.waypoint", "pk": 371, "fields": {"name": "ANNTS", "lat": "41.68355555555555", "lon": "-83.7906111111111"}}, {"model": "viewer.waypoint", "pk": 372, "fields": {"name": "ANNTY", "lat": "40.90138888888889", "lon": "-112.10961111111111"}}, {"model": "viewer.waypoint", "pk": 373, "fields": {"name": "ANNYE", "lat": "34.589558333333336", "lon": "-83.91133611111111"}}, {"model": "viewer.waypoint", "pk": 374, "fields": {"name": "ANOSA", "lat": "42.110975", "lon": "-91.32235555555555"}}, {"model": "viewer.waypoint", "pk": 375, "fields": {"name": "ANPIY", "lat": "32.900305555555555", "lon": "-91.35902499999999"}}, {"model": "viewer.waypoint", "pk": 376, "fields": {"name": "ANSLY", "lat": "41.92388888888889", "lon": "-70.97188888888888"}}, {"model": "viewer.waypoint", "pk": 377, "fields": {"name": "ANSWA", "lat": "34.740972222222226", "lon": "-91.77580555555555"}}, {"model": "viewer.waypoint", "pk": 378, "fields": {"name": "ANSYN", "lat": "44.746122222222226", "lon": "-70.00250833333334"}}, {"model": "viewer.waypoint", "pk": 379, "fields": {"name": "ANTEO", "lat": "38.93472222222222", "lon": "-84.57677777777778"}}, {"model": "viewer.waypoint", "pk": 380, "fields": {"name": "ANTHM", "lat": "39.446555555555555", "lon": "-77.36325"}}, {"model": "viewer.waypoint", "pk": 381, "fields": {"name": "ANTIO", "lat": "39.54340277777778", "lon": "-81.06426944444443"}}, {"model": "viewer.waypoint", "pk": 382, "fields": {"name": "ANTLP", "lat": "34.71425", "lon": "-117.50827777777778"}}, {"model": "viewer.waypoint", "pk": 383, "fields": {"name": "ANTLR", "lat": "49.07369472222223", "lon": "-122.23432111111111"}}, {"model": "viewer.waypoint", "pk": 384, "fields": {"name": "ANTMO", "lat": "40.75863888888889", "lon": "-115.40097222222222"}}, {"model": "viewer.waypoint", "pk": 385, "fields": {"name": "ANTNY", "lat": "38.4279", "lon": "-77.55493055555556"}}, {"model": "viewer.waypoint", "pk": 386, "fields": {"name": "ANTON", "lat": "38.45141944444445", "lon": "-97.49783333333333"}}, {"model": "viewer.waypoint", "pk": 387, "fields": {"name": "ANTOV", "lat": "45.37638888888889", "lon": "-71.0375"}}, {"model": "viewer.waypoint", "pk": 388, "fields": {"name": "ANTTI", "lat": "39.869641666666666", "lon": "-86.81868888888889"}}, {"model": "viewer.waypoint", "pk": 389, "fields": {"name": "ANTUH", "lat": "31.552933333333335", "lon": "-88.42679722222223"}}, {"model": "viewer.waypoint", "pk": 390, "fields": {"name": "ANUGE", "lat": "38.26844166666667", "lon": "-96.28345555555555"}}, {"model": "viewer.waypoint", "pk": 391, "fields": {"name": "ANVAL", "lat": "33.915194444444445", "lon": "-84.04866666666666"}}, {"model": "viewer.waypoint", "pk": 392, "fields": {"name": "ANWEX", "lat": "64.33400555555555", "lon": "-165.09348888888888"}}, {"model": "viewer.waypoint", "pk": 393, "fields": {"name": "ANZEL", "lat": "33.36002777777778", "lon": "-111.79986111111111"}}, {"model": "viewer.waypoint", "pk": 394, "fields": {"name": "APACK", "lat": "24.043694444444448", "lon": "-156.31955555555555"}}, {"model": "viewer.waypoint", "pk": 395, "fields": {"name": "APALO", "lat": "38.005719444444445", "lon": "-86.85979722222221"}}, {"model": "viewer.waypoint", "pk": 396, "fields": {"name": "APAYU", "lat": "41.21545555555556", "lon": "-103.39535000000001"}}, {"model": "viewer.waypoint", "pk": 397, "fields": {"name": "APCOT", "lat": "38.376666666666665", "lon": "-86.32833333333333"}}, {"model": "viewer.waypoint", "pk": 398, "fields": {"name": "APDON", "lat": "48.90583055555555", "lon": "-122.74572222222223"}}, {"model": "viewer.waypoint", "pk": 399, "fields": {"name": "APELE", "lat": "32.622083333333336", "lon": "-83.20054722222223"}}, {"model": "viewer.waypoint", "pk": 400, "fields": {"name": "APEMY", "lat": "35.18921666666667", "lon": "-112.99668055555556"}}, {"model": "viewer.waypoint", "pk": 401, "fields": {"name": "APGUH", "lat": "42.51938333333333", "lon": "-114.24651666666666"}}, {"model": "viewer.waypoint", "pk": 402, "fields": {"name": "APIAN", "lat": "33.6984", "lon": "-82.49852222222222"}}, {"model": "viewer.waypoint", "pk": 403, "fields": {"name": "APISE", "lat": "43.50211111111111", "lon": "-116.4415"}}, {"model": "viewer.waypoint", "pk": 404, "fields": {"name": "APLES", "lat": "34.54846666666666", "lon": "-117.14948333333334"}}, {"model": "viewer.waypoint", "pk": 405, "fields": {"name": "APLES", "lat": "34.54847222222222", "lon": "-117.14947222222223"}}, {"model": "viewer.waypoint", "pk": 406, "fields": {"name": "APLLE", "lat": "37.03358333333333", "lon": "-121.79636111111111"}}, {"model": "viewer.waypoint", "pk": 407, "fields": {"name": "APNEL", "lat": "45.349805555555555", "lon": "-82.22841666666667"}}, {"model": "viewer.waypoint", "pk": 408, "fields": {"name": "APOLO", "lat": "28.83261111111111", "lon": "-80.42091666666667"}}, {"model": "viewer.waypoint", "pk": 409, "fields": {"name": "APPEL", "lat": "65.38291666666666", "lon": "-146.00247222222222"}}, {"model": "viewer.waypoint", "pk": 410, "fields": {"name": "APPIN", "lat": "31.21111388888889", "lon": "-93.68299444444445"}}, {"model": "viewer.waypoint", "pk": 411, "fields": {"name": "APPLE", "lat": "40.55613611111111", "lon": "-74.06225277777777"}}, {"model": "viewer.waypoint", "pk": 412, "fields": {"name": "APPLS", "lat": "35.90863888888889", "lon": "-83.67255555555556"}}, {"model": "viewer.waypoint", "pk": 413, "fields": {"name": "APRIW", "lat": "46.938966666666666", "lon": "-96.3988138888889"}}, {"model": "viewer.waypoint", "pk": 414, "fields": {"name": "APUFO", "lat": "38.98079166666667", "lon": "-87.37556388888888"}}, {"model": "viewer.waypoint", "pk": 415, "fields": {"name": "APUUU", "lat": "39.65547222222222", "lon": "-103.95241666666666"}}, {"model": "viewer.waypoint", "pk": 416, "fields": {"name": "APUYO", "lat": "64.42157222222222", "lon": "-164.695125"}}, {"model": "viewer.waypoint", "pk": 417, "fields": {"name": "AQUAS", "lat": "39.46763333333333", "lon": "-88.91931111111111"}}, {"model": "viewer.waypoint", "pk": 418, "fields": {"name": "AQUAT", "lat": "45.32911388888889", "lon": "-92.97933333333333"}}, {"model": "viewer.waypoint", "pk": 419, "fields": {"name": "ARARR", "lat": "43.632444444444445", "lon": "-70.62297222222222"}}, {"model": "viewer.waypoint", "pk": 420, "fields": {"name": "ARAYI", "lat": "41.03241388888889", "lon": "-115.56487777777778"}}, {"model": "viewer.waypoint", "pk": 421, "fields": {"name": "ARAZI", "lat": "32.76633888888889", "lon": "-114.70164722222222"}}, {"model": "viewer.waypoint", "pk": 422, "fields": {"name": "ARBAS", "lat": "39.96832777777778", "lon": "-84.89877222222223"}}, {"model": "viewer.waypoint", "pk": 423, "fields": {"name": "ARBEE", "lat": "34.14556666666667", "lon": "-86.26689444444445"}}, {"model": "viewer.waypoint", "pk": 424, "fields": {"name": "ARBIH", "lat": "39.70274444444445", "lon": "-110.92665833333334"}}, {"model": "viewer.waypoint", "pk": 425, "fields": {"name": "ARBOR", "lat": "19.981002777777775", "lon": "-155.13325"}}, {"model": "viewer.waypoint", "pk": 426, "fields": {"name": "ARCAB", "lat": "40.59630555555556", "lon": "-85.29491666666667"}}, {"model": "viewer.waypoint", "pk": 427, "fields": {"name": "ARCAV", "lat": "40.96605", "lon": "-71.79878333333333"}}, {"model": "viewer.waypoint", "pk": 428, "fields": {"name": "ARCHH", "lat": "38.79956111111111", "lon": "-109.57939722222221"}}, {"model": "viewer.waypoint", "pk": 429, "fields": {"name": "ARCHI", "lat": "37.49080555555555", "lon": "-121.87555555555555"}}, {"model": "viewer.waypoint", "pk": 430, "fields": {"name": "ARCHY", "lat": "40.007777777777775", "lon": "-104.89155555555556"}}, {"model": "viewer.waypoint", "pk": 431, "fields": {"name": "ARCHZ", "lat": "40.56444444444444", "lon": "-112.31177777777778"}}, {"model": "viewer.waypoint", "pk": 432, "fields": {"name": "ARCOL", "lat": "39.65161944444444", "lon": "-88.282975"}}, {"model": "viewer.waypoint", "pk": 433, "fields": {"name": "ARCON", "lat": "69.9336", "lon": "-148.4220111111111"}}, {"model": "viewer.waypoint", "pk": 434, "fields": {"name": "ARCUS", "lat": "34.541666666666664", "lon": "-117.10177777777777"}}, {"model": "viewer.waypoint", "pk": 435, "fields": {"name": "ARDER", "lat": "35.001525", "lon": "-86.8799111111111"}}, {"model": "viewer.waypoint", "pk": 436, "fields": {"name": "ARDIA", "lat": "32.28508333333333", "lon": "-96.93786111111112"}}, {"model": "viewer.waypoint", "pk": 437, "fields": {"name": "ARDMO", "lat": "45.66166388888889", "lon": "-108.19739444444444"}}, {"model": "viewer.waypoint", "pk": 438, "fields": {"name": "ARDUE", "lat": "45.04553333333333", "lon": "-95.69738055555555"}}, {"model": "viewer.waypoint", "pk": 439, "fields": {"name": "AREAE", "lat": "33.63441666666667", "lon": "-117.23363888888889"}}, {"model": "viewer.waypoint", "pk": 440, "fields": {"name": "AREAF", "lat": "35.608825", "lon": "-113.23068333333333"}}, {"model": "viewer.waypoint", "pk": 441, "fields": {"name": "AREDA", "lat": "42.870447222222225", "lon": "-92.93835277777778"}}, {"model": "viewer.waypoint", "pk": 442, "fields": {"name": "ARELE", "lat": "35.87972222222222", "lon": "-77.87072222222221"}}, {"model": "viewer.waypoint", "pk": 443, "fields": {"name": "ARENE", "lat": "41.464261111111114", "lon": "-72.2645611111111"}}, {"model": "viewer.waypoint", "pk": 444, "fields": {"name": "ARENZ", "lat": "40.14375", "lon": "-93.65055555555556"}}, {"model": "viewer.waypoint", "pk": 445, "fields": {"name": "AREPE", "lat": "27.21836111111111", "lon": "-80.12866666666666"}}, {"model": "viewer.waypoint", "pk": 446, "fields": {"name": "ARFEJ", "lat": "42.17393611111111", "lon": "-107.18072777777778"}}, {"model": "viewer.waypoint", "pk": 447, "fields": {"name": "ARGAL", "lat": "36.17128611111111", "lon": "-78.16536388888889"}}, {"model": "viewer.waypoint", "pk": 448, "fields": {"name": "ARGUS", "lat": "32.75363333333333", "lon": "-115.31103611111111"}}, {"model": "viewer.waypoint", "pk": 449, "fields": {"name": "ARICE", "lat": "37.68879166666666", "lon": "-75.742325"}}, {"model": "viewer.waypoint", "pk": 450, "fields": {"name": "ARIGY", "lat": "34.535475", "lon": "-91.34719444444444"}}, {"model": "viewer.waypoint", "pk": 451, "fields": {"name": "ARIII", "lat": "33.60369444444444", "lon": "-117.57405555555555"}}, {"model": "viewer.waypoint", "pk": 452, "fields": {"name": "ARILE", "lat": "32.89713888888889", "lon": "-97.03947222222222"}}, {"model": "viewer.waypoint", "pk": 453, "fields": {"name": "ARIRE", "lat": "33.407719444444446", "lon": "-92.62032777777777"}}, {"model": "viewer.waypoint", "pk": 454, "fields": {"name": "ARISE", "lat": "59.99999444444445", "lon": "-146.15374166666666"}}, {"model": "viewer.waypoint", "pk": 455, "fields": {"name": "ARJEL", "lat": "45.254725", "lon": "-98.66169722222223"}}, {"model": "viewer.waypoint", "pk": 456, "fields": {"name": "ARKES", "lat": "26.577147222222223", "lon": "-80.41766666666668"}}, {"model": "viewer.waypoint", "pk": 457, "fields": {"name": "ARKKK", "lat": "42.06347777777778", "lon": "-75.31678055555555"}}, {"model": "viewer.waypoint", "pk": 458, "fields": {"name": "ARKOE", "lat": "33.628305555555556", "lon": "-117.08066666666666"}}, {"model": "viewer.waypoint", "pk": 459, "fields": {"name": "ARLEE", "lat": "47.14095", "lon": "-114.09975277777777"}}, {"model": "viewer.waypoint", "pk": 460, "fields": {"name": "ARLIN", "lat": "33.283722222222224", "lon": "-112.68513888888889"}}, {"model": "viewer.waypoint", "pk": 461, "fields": {"name": "ARLUV", "lat": "37.86260277777778", "lon": "-87.70185000000001"}}, {"model": "viewer.waypoint", "pk": 462, "fields": {"name": "ARLYN", "lat": "40.31666666666667", "lon": "-88.66666666666667"}}, {"model": "viewer.waypoint", "pk": 463, "fields": {"name": "ARMIE", "lat": "43.21061944444445", "lon": "-70.5123"}}, {"model": "viewer.waypoint", "pk": 464, "fields": {"name": "ARMMS", "lat": "40.98051388888889", "lon": "-74.66138333333333"}}, {"model": "viewer.waypoint", "pk": 465, "fields": {"name": "ARMOR", "lat": "31.629908333333333", "lon": "-94.73031388888889"}}, {"model": "viewer.waypoint", "pk": 466, "fields": {"name": "ARMUR", "lat": "15.543333333333333", "lon": "-66.635"}}, {"model": "viewer.waypoint", "pk": 467, "fields": {"name": "ARMUW", "lat": "45.44344722222222", "lon": "-95.19598333333333"}}, {"model": "viewer.waypoint", "pk": 468, "fields": {"name": "ARMYY", "lat": "33.594944444444444", "lon": "-95.80622222222222"}}, {"model": "viewer.waypoint", "pk": 469, "fields": {"name": "ARNEE", "lat": "33.82580555555556", "lon": "-117.45238888888889"}}, {"model": "viewer.waypoint", "pk": 470, "fields": {"name": "ARNES", "lat": "33.999361111111114", "lon": "-117.76705555555556"}}, {"model": "viewer.waypoint", "pk": 471, "fields": {"name": "ARNEY", "lat": "30.979527777777776", "lon": "-81.96761111111111"}}, {"model": "viewer.waypoint", "pk": 472, "fields": {"name": "ARNII", "lat": "43.24997777777778", "lon": "-74.33337222222222"}}, {"model": "viewer.waypoint", "pk": 473, "fields": {"name": "ARNNE", "lat": "30.72908333333333", "lon": "-96.55008333333333"}}, {"model": "viewer.waypoint", "pk": 474, "fields": {"name": "ARNOL", "lat": "38.264361111111114", "lon": "-90.35659166666666"}}, {"model": "viewer.waypoint", "pk": 475, "fields": {"name": "ARNOY", "lat": "44.50113888888889", "lon": "-120.91117222222223"}}, {"model": "viewer.waypoint", "pk": 476, "fields": {"name": "AROGE", "lat": "36.76674444444444", "lon": "-111.41103055555556"}}, {"model": "viewer.waypoint", "pk": 477, "fields": {"name": "AROWS", "lat": "43.489780555555555", "lon": "-115.83601666666667"}}, {"model": "viewer.waypoint", "pk": 478, "fields": {"name": "AROYO", "lat": "35.10808055555556", "lon": "-107.11069166666667"}}, {"model": "viewer.waypoint", "pk": 479, "fields": {"name": "ARPEE", "lat": "47.833980555555556", "lon": "-122.78261666666667"}}, {"model": "viewer.waypoint", "pk": 480, "fields": {"name": "ARPER", "lat": "30.44202222222222", "lon": "-99.37005277777777"}}, {"model": "viewer.waypoint", "pk": 481, "fields": {"name": "ARPPE", "lat": "33.60483055555556", "lon": "-85.23695000000001"}}, {"model": "viewer.waypoint", "pk": 482, "fields": {"name": "ARRAN", "lat": "34.218775", "lon": "-117.16895833333334"}}, {"model": "viewer.waypoint", "pk": 483, "fields": {"name": "ARRAN", "lat": "34.21877777777778", "lon": "-117.16897222222222"}}, {"model": "viewer.waypoint", "pk": 484, "fields": {"name": "ARRDY", "lat": "33.655027777777775", "lon": "-116.778"}}, {"model": "viewer.waypoint", "pk": 485, "fields": {"name": "ARREX", "lat": "44.42572222222222", "lon": "-94.14277777777778"}}, {"model": "viewer.waypoint", "pk": 486, "fields": {"name": "ARRIE", "lat": "47.879891666666666", "lon": "-123.47583333333334"}}, {"model": "viewer.waypoint", "pk": 487, "fields": {"name": "ARRMY", "lat": "35.06333333333333", "lon": "-116.74"}}, {"model": "viewer.waypoint", "pk": 488, "fields": {"name": "ARROW", "lat": "22.355044444444445", "lon": "-155.20856388888888"}}, {"model": "viewer.waypoint", "pk": 489, "fields": {"name": "ARRTU", "lat": "37.73361111111111", "lon": "-121.503"}}, {"model": "viewer.waypoint", "pk": 490, "fields": {"name": "ARRUE", "lat": "49.073055555555555", "lon": "-124.12972222222221"}}, {"model": "viewer.waypoint", "pk": 491, "fields": {"name": "ARRVD", "lat": "33.98555555555556", "lon": "-116.73266666666667"}}, {"model": "viewer.waypoint", "pk": 492, "fields": {"name": "ARRYA", "lat": "33.876222222222225", "lon": "-116.52538888888888"}}, {"model": "viewer.waypoint", "pk": 493, "fields": {"name": "ARSEN", "lat": "61.01899722222222", "lon": "-163.101825"}}, {"model": "viewer.waypoint", "pk": 494, "fields": {"name": "ARTEL", "lat": "30.16015833333333", "lon": "-92.73131111111111"}}, {"model": "viewer.waypoint", "pk": 495, "fields": {"name": "ARTIC", "lat": "69.02053333333333", "lon": "-148.44103333333334"}}, {"model": "viewer.waypoint", "pk": 496, "fields": {"name": "ARTIN", "lat": "46.255897222222224", "lon": "-117.48875833333334"}}, {"model": "viewer.waypoint", "pk": 497, "fields": {"name": "ARTJR", "lat": "39.97486111111111", "lon": "-85.93680555555557"}}, {"model": "viewer.waypoint", "pk": 498, "fields": {"name": "ARTUR", "lat": "36.53286111111111", "lon": "-83.78536111111111"}}, {"model": "viewer.waypoint", "pk": 499, "fields": {"name": "ARTYS", "lat": "42.57959166666667", "lon": "-93.07628888888888"}}, {"model": "viewer.waypoint", "pk": 500, "fields": {"name": "ARUPT", "lat": "45.75833333333333", "lon": "-122.74569444444444"}}, {"model": "viewer.waypoint", "pk": 501, "fields": {"name": "ARUTE", "lat": "41.62986388888889", "lon": "-108.68626944444445"}}, {"model": "viewer.waypoint", "pk": 502, "fields": {"name": "ARUXY", "lat": "43.255075", "lon": "-108.91095277777778"}}, {"model": "viewer.waypoint", "pk": 503, "fields": {"name": "ARUYE", "lat": "38.58979166666667", "lon": "-76.55571388888889"}}, {"model": "viewer.waypoint", "pk": 504, "fields": {"name": "ARVAD", "lat": "47.22263888888889", "lon": "-122.581"}}, {"model": "viewer.waypoint", "pk": 505, "fields": {"name": "ARVDD", "lat": "36.12836111111111", "lon": "-114.70369444444445"}}, {"model": "viewer.waypoint", "pk": 506, "fields": {"name": "ARVEY", "lat": "31.694047222222224", "lon": "-110.9808"}}, {"model": "viewer.waypoint", "pk": 507, "fields": {"name": "ARVIN", "lat": "35.27685555555556", "lon": "-118.86134722222222"}}, {"model": "viewer.waypoint", "pk": 508, "fields": {"name": "ARVIN", "lat": "35.27686111111111", "lon": "-118.86136111111111"}}, {"model": "viewer.waypoint", "pk": 509, "fields": {"name": "ARVON", "lat": "37.68720833333333", "lon": "-78.36631944444444"}}, {"model": "viewer.waypoint", "pk": 510, "fields": {"name": "ARVON", "lat": "37.68722222222222", "lon": "-78.36633333333333"}}, {"model": "viewer.waypoint", "pk": 511, "fields": {"name": "ASALT", "lat": "40.52758333333333", "lon": "-73.96394444444445"}}, {"model": "viewer.waypoint", "pk": 512, "fields": {"name": "ASAZE", "lat": "35.2386", "lon": "-99.39480833333334"}}, {"model": "viewer.waypoint", "pk": 513, "fields": {"name": "ASBUR", "lat": "37.82344722222223", "lon": "-80.46428888888889"}}, {"model": "viewer.waypoint", "pk": 514, "fields": {"name": "ASCOT", "lat": "27.118647222222222", "lon": "-97.41698055555555"}}, {"model": "viewer.waypoint", "pk": 515, "fields": {"name": "ASERY", "lat": "38.47665833333333", "lon": "-81.29281666666667"}}, {"model": "viewer.waypoint", "pk": 516, "fields": {"name": "ASHBY", "lat": "40.317238888888895", "lon": "-102.00150833333333"}}, {"model": "viewer.waypoint", "pk": 517, "fields": {"name": "ASHBY", "lat": "40.31725", "lon": "-102.0015"}}, {"model": "viewer.waypoint", "pk": 518, "fields": {"name": "ASHEN", "lat": "41.480491666666666", "lon": "-84.64675000000001"}}, {"model": "viewer.waypoint", "pk": 519, "fields": {"name": "ASHES", "lat": "34.08003055555556", "lon": "-78.53576111111111"}}, {"model": "viewer.waypoint", "pk": 520, "fields": {"name": "ASHLI", "lat": "46.31673333333334", "lon": "-106.27683055555555"}}, {"model": "viewer.waypoint", "pk": 521, "fields": {"name": "ASHLN", "lat": "39.254083333333334", "lon": "-78.30975"}}, {"model": "viewer.waypoint", "pk": 522, "fields": {"name": "ASHOR", "lat": "39.22544444444445", "lon": "-76.40516666666667"}}, {"model": "viewer.waypoint", "pk": 523, "fields": {"name": "ASHRR", "lat": "30.317944444444443", "lon": "-96.50769444444444"}}, {"model": "viewer.waypoint", "pk": 524, "fields": {"name": "ASHWY", "lat": "41.405369444444446", "lon": "-71.78451388888888"}}, {"model": "viewer.waypoint", "pk": 525, "fields": {"name": "ASIDE", "lat": "35.288916666666665", "lon": "-106.74052777777779"}}, {"model": "viewer.waypoint", "pk": 526, "fields": {"name": "ASLEE", "lat": "61.23566666666667", "lon": "-150.31661111111111"}}, {"model": "viewer.waypoint", "pk": 527, "fields": {"name": "ASORT", "lat": "58.362680555555556", "lon": "-135.82089166666665"}}, {"model": "viewer.waypoint", "pk": 528, "fields": {"name": "ASORT", "lat": "58.36269444444444", "lon": "-135.82088888888887"}}, {"model": "viewer.waypoint", "pk": 529, "fields": {"name": "ASOYA", "lat": "35.935513888888885", "lon": "-103.51785555555556"}}, {"model": "viewer.waypoint", "pk": 530, "fields": {"name": "ASPEN", "lat": "42.815999999999995", "lon": "-70.9115"}}, {"model": "viewer.waypoint", "pk": 531, "fields": {"name": "ASSUR", "lat": "35.53980555555555", "lon": "-89.86094444444444"}}, {"model": "viewer.waypoint", "pk": 532, "fields": {"name": "ASTAH", "lat": "35.01583333333333", "lon": "-106.75155555555556"}}, {"model": "viewer.waypoint", "pk": 533, "fields": {"name": "ASTOE", "lat": "44.465408333333336", "lon": "-96.63804166666668"}}, {"model": "viewer.waypoint", "pk": 534, "fields": {"name": "ASTOR", "lat": "29.798694444444447", "lon": "-81.30169722222222"}}, {"model": "viewer.waypoint", "pk": 535, "fields": {"name": "ASTRO", "lat": "28.777444444444445", "lon": "-80.80088888888889"}}, {"model": "viewer.waypoint", "pk": 536, "fields": {"name": "ASUTA", "lat": "32.652499999999996", "lon": "-115.65305555555557"}}, {"model": "viewer.waypoint", "pk": 537, "fields": {"name": "ASUTE", "lat": "39.94416944444444", "lon": "-78.27438611111111"}}, {"model": "viewer.waypoint", "pk": 538, "fields": {"name": "ASYLM", "lat": "38.53955555555555", "lon": "-103.1036111111111"}}, {"model": "viewer.waypoint", "pk": 539, "fields": {"name": "ATAGA", "lat": "59.84701944444445", "lon": "-142.615375"}}, {"model": "viewer.waypoint", "pk": 540, "fields": {"name": "ATAGO", "lat": "65.97525277777778", "lon": "-157.38930833333333"}}, {"model": "viewer.waypoint", "pk": 541, "fields": {"name": "ATAME", "lat": "41.94653611111111", "lon": "-78.81806944444445"}}, {"model": "viewer.waypoint", "pk": 542, "fields": {"name": "ATASY", "lat": "46.42465277777777", "lon": "-123.11370833333332"}}, {"model": "viewer.waypoint", "pk": 543, "fields": {"name": "ATASY", "lat": "46.42466666666667", "lon": "-123.11372222222222"}}, {"model": "viewer.waypoint", "pk": 544, "fields": {"name": "ATAYI", "lat": "65.23311944444444", "lon": "-167.08536111111113"}}, {"model": "viewer.waypoint", "pk": 545, "fields": {"name": "ATCAY", "lat": "40.35093333333334", "lon": "-101.74386111111112"}}, {"model": "viewer.waypoint", "pk": 546, "fields": {"name": "ATENE", "lat": "46.23444444444444", "lon": "-70.2725"}}, {"model": "viewer.waypoint", "pk": 547, "fields": {"name": "ATERS", "lat": "34.657313888888886", "lon": "-91.85815277777778"}}, {"model": "viewer.waypoint", "pk": 548, "fields": {"name": "ATETY", "lat": "43.39154166666667", "lon": "-115.92975555555556"}}, {"model": "viewer.waypoint", "pk": 549, "fields": {"name": "ATHIS", "lat": "28.07346111111111", "lon": "-97.83881666666666"}}, {"model": "viewer.waypoint", "pk": 550, "fields": {"name": "ATHOS", "lat": "42.247080555555556", "lon": "-73.8121"}}, {"model": "viewer.waypoint", "pk": 551, "fields": {"name": "ATHOS", "lat": "42.247083333333336", "lon": "-73.81211111111111"}}, {"model": "viewer.waypoint", "pk": 552, "fields": {"name": "ATILE", "lat": "40.04955555555556", "lon": "-86.71741666666667"}}, {"model": "viewer.waypoint", "pk": 553, "fields": {"name": "ATINE", "lat": "22.641130555555556", "lon": "-157.224"}}, {"model": "viewer.waypoint", "pk": 554, "fields": {"name": "ATKNN", "lat": "31.807194444444445", "lon": "-106.58397222222222"}}, {"model": "viewer.waypoint", "pk": 555, "fields": {"name": "ATLES", "lat": "42.37883333333333", "lon": "-96.8837638888889"}}, {"model": "viewer.waypoint", "pk": 556, "fields": {"name": "ATOBE", "lat": "42.68656111111111", "lon": "-89.28207777777777"}}, {"model": "viewer.waypoint", "pk": 557, "fields": {"name": "ATOKA", "lat": "34.61127777777778", "lon": "-96.46940555555555"}}, {"model": "viewer.waypoint", "pk": 558, "fields": {"name": "ATOKA", "lat": "34.61127777777778", "lon": "-96.46941666666667"}}, {"model": "viewer.waypoint", "pk": 559, "fields": {"name": "ATOKE", "lat": "45.866705555555555", "lon": "-117.47814722222222"}}, {"model": "viewer.waypoint", "pk": 560, "fields": {"name": "ATOME", "lat": "47.60755555555556", "lon": "-122.36322222222222"}}, {"model": "viewer.waypoint", "pk": 561, "fields": {"name": "ATOMK", "lat": "35.95575", "lon": "-106.94302777777779"}}, {"model": "viewer.waypoint", "pk": 562, "fields": {"name": "ATONE", "lat": "26.386705555555555", "lon": "-80.35657777777777"}}, {"model": "viewer.waypoint", "pk": 563, "fields": {"name": "ATONE", "lat": "26.386694444444444", "lon": "-80.35658333333333"}}, {"model": "viewer.waypoint", "pk": 564, "fields": {"name": "ATOPE", "lat": "37.593091666666666", "lon": "-93.62870555555556"}}, {"model": "viewer.waypoint", "pk": 565, "fields": {"name": "ATOTE", "lat": "39.07619444444445", "lon": "-87.20641666666667"}}, {"model": "viewer.waypoint", "pk": 566, "fields": {"name": "ATOXE", "lat": "47.33547222222222", "lon": "-117.521575"}}, {"model": "viewer.waypoint", "pk": 567, "fields": {"name": "ATTIC", "lat": "40.057069444444444", "lon": "-89.97995"}}, {"model": "viewer.waypoint", "pk": 568, "fields": {"name": "ATTIL", "lat": "40.35601944444445", "lon": "-87.15725555555557"}}, {"model": "viewer.waypoint", "pk": 569, "fields": {"name": "ATUME", "lat": "36.95379166666667", "lon": "-83.05676666666666"}}, {"model": "viewer.waypoint", "pk": 570, "fields": {"name": "ATUNE", "lat": "34.54691388888889", "lon": "-85.49082222222222"}}, {"model": "viewer.waypoint", "pk": 571, "fields": {"name": "ATWAN", "lat": "41.737500000000004", "lon": "-73.82063888888888"}}, {"model": "viewer.waypoint", "pk": 572, "fields": {"name": "ATWEL", "lat": "38.988327777777776", "lon": "-75.4723"}}, {"model": "viewer.waypoint", "pk": 573, "fields": {"name": "ATWOO", "lat": "40.485727777777775", "lon": "-81.21368611111112"}}, {"model": "viewer.waypoint", "pk": 574, "fields": {"name": "ATWUS", "lat": "35.23523888888889", "lon": "-86.52280555555555"}}, {"model": "viewer.waypoint", "pk": 575, "fields": {"name": "ATYOL", "lat": "60.74268888888889", "lon": "-148.72085833333333"}}, {"model": "viewer.waypoint", "pk": 576, "fields": {"name": "AUBRN", "lat": "47.36177777777778", "lon": "-122.14597222222223"}}, {"model": "viewer.waypoint", "pk": 577, "fields": {"name": "AUBRY", "lat": "35.864200000000004", "lon": "-83.59105833333332"}}, {"model": "viewer.waypoint", "pk": 578, "fields": {"name": "AUBUR", "lat": "39.51090277777778", "lon": "-89.75052222222222"}}, {"model": "viewer.waypoint", "pk": 579, "fields": {"name": "AUDII", "lat": "36.20213888888889", "lon": "-78.81008333333332"}}, {"model": "viewer.waypoint", "pk": 580, "fields": {"name": "AUDIL", "lat": "42.87187222222222", "lon": "-76.44307500000001"}}, {"model": "viewer.waypoint", "pk": 581, "fields": {"name": "AUDIL", "lat": "42.87186111111111", "lon": "-76.44308333333333"}}, {"model": "viewer.waypoint", "pk": 582, "fields": {"name": "AUDIO", "lat": "38.945924999999995", "lon": "-121.04805555555555"}}, {"model": "viewer.waypoint", "pk": 583, "fields": {"name": "AUGER", "lat": "44.298766666666666", "lon": "-90.134825"}}, {"model": "viewer.waypoint", "pk": 584, "fields": {"name": "AUGEY", "lat": "59.46971111111111", "lon": "-152.8887222222222"}}, {"model": "viewer.waypoint", "pk": 585, "fields": {"name": "AUGIE", "lat": "38.246766666666666", "lon": "-93.735975"}}, {"model": "viewer.waypoint", "pk": 586, "fields": {"name": "AUGST", "lat": "38.70438888888889", "lon": "-90.75635"}}, {"model": "viewer.waypoint", "pk": 587, "fields": {"name": "AUGUS", "lat": "38.31540833333333", "lon": "-87.25221111111111"}}, {"model": "viewer.waypoint", "pk": 588, "fields": {"name": "AUSTS", "lat": "28.228027777777775", "lon": "-97.14816944444445"}}, {"model": "viewer.waypoint", "pk": 589, "fields": {"name": "AUTIM", "lat": "40.75489722222222", "lon": "-105.51153611111111"}}, {"model": "viewer.waypoint", "pk": 590, "fields": {"name": "AUTMN", "lat": "34.61152777777778", "lon": "-90.62827777777777"}}, {"model": "viewer.waypoint", "pk": 591, "fields": {"name": "AUTTO", "lat": "42.57613888888889", "lon": "-82.33366666666666"}}, {"model": "viewer.waypoint", "pk": 592, "fields": {"name": "AUTUM", "lat": "42.55033333333333", "lon": "-71.59233333333333"}}, {"model": "viewer.waypoint", "pk": 593, "fields": {"name": "AVALE", "lat": "46.73402222222222", "lon": "-85.13332222222222"}}, {"model": "viewer.waypoint", "pk": 594, "fields": {"name": "AVALO", "lat": "39.28181111111111", "lon": "-74.51409722222222"}}, {"model": "viewer.waypoint", "pk": 595, "fields": {"name": "AVANS", "lat": "34.934352777777775", "lon": "-110.45860277777778"}}, {"model": "viewer.waypoint", "pk": 596, "fields": {"name": "AVARR", "lat": "36.798649999999995", "lon": "-92.39316666666667"}}, {"model": "viewer.waypoint", "pk": 597, "fields": {"name": "AVATR", "lat": "34.04519444444444", "lon": "-116.888"}}, {"model": "viewer.waypoint", "pk": 598, "fields": {"name": "AVENT", "lat": "33.69214722222222", "lon": "-112.03609166666666"}}, {"model": "viewer.waypoint", "pk": 599, "fields": {"name": "AVERE", "lat": "40.33104166666667", "lon": "-80.05732222222223"}}, {"model": "viewer.waypoint", "pk": 600, "fields": {"name": "AVERY", "lat": "35.81758333333334", "lon": "-81.89105555555557"}}, {"model": "viewer.waypoint", "pk": 601, "fields": {"name": "AVILA", "lat": "35.146363888888885", "lon": "-120.66045000000001"}}, {"model": "viewer.waypoint", "pk": 602, "fields": {"name": "AVNEW", "lat": "39.519038888888886", "lon": "-104.42222222222223"}}, {"model": "viewer.waypoint", "pk": 603, "fields": {"name": "AVOLS", "lat": "33.351794444444444", "lon": "-118.24183888888889"}}, {"model": "viewer.waypoint", "pk": 604, "fields": {"name": "AVOLS", "lat": "33.35180555555556", "lon": "-118.24183333333333"}}, {"model": "viewer.waypoint", "pk": 605, "fields": {"name": "AVONA", "lat": "33.44223333333333", "lon": "-112.32565"}}, {"model": "viewer.waypoint", "pk": 606, "fields": {"name": "AVONN", "lat": "41.63591666666667", "lon": "-71.20726388888889"}}, {"model": "viewer.waypoint", "pk": 607, "fields": {"name": "AVONS", "lat": "33.26833888888889", "lon": "-91.25305833333333"}}, {"model": "viewer.waypoint", "pk": 608, "fields": {"name": "AVOTE", "lat": "36.79966944444444", "lon": "-89.78886388888888"}}, {"model": "viewer.waypoint", "pk": 609, "fields": {"name": "AVRRY", "lat": "33.75205555555556", "lon": "-115.57072222222222"}}, {"model": "viewer.waypoint", "pk": 610, "fields": {"name": "AVTAR", "lat": "28.346555555555554", "lon": "-83.12738888888889"}}, {"model": "viewer.waypoint", "pk": 611, "fields": {"name": "AVVVS", "lat": "40.03550555555555", "lon": "-104.76754444444444"}}, {"model": "viewer.waypoint", "pk": 612, "fields": {"name": "AWALI", "lat": "37.62869444444444", "lon": "-120.55271111111111"}}, {"model": "viewer.waypoint", "pk": 613, "fields": {"name": "AWASH", "lat": "35.27650833333333", "lon": "-106.98759166666667"}}, {"model": "viewer.waypoint", "pk": 614, "fields": {"name": "AWDAD", "lat": "30.116500000000002", "lon": "-90.9521"}}, {"model": "viewer.waypoint", "pk": 615, "fields": {"name": "AWDAD", "lat": "30.116500000000002", "lon": "-90.95211111111111"}}, {"model": "viewer.waypoint", "pk": 616, "fields": {"name": "AWHOV", "lat": "38.45328888888889", "lon": "-97.66331944444445"}}, {"model": "viewer.waypoint", "pk": 617, "fields": {"name": "AWIJE", "lat": "35.545113888888885", "lon": "-94.56058333333333"}}, {"model": "viewer.waypoint", "pk": 618, "fields": {"name": "AWINY", "lat": "28.281677777777777", "lon": "-80.79272777777777"}}, {"model": "viewer.waypoint", "pk": 619, "fields": {"name": "AWISA", "lat": "40.17607777777778", "lon": "-75.28054722222222"}}, {"model": "viewer.waypoint", "pk": 620, "fields": {"name": "AWIZO", "lat": "35.934013888888884", "lon": "-111.78386111111111"}}, {"model": "viewer.waypoint", "pk": 621, "fields": {"name": "AWLAR", "lat": "32.63905833333333", "lon": "-95.04534166666666"}}, {"model": "viewer.waypoint", "pk": 622, "fields": {"name": "AWLEE", "lat": "37.964444444444446", "lon": "-85.6755"}}, {"model": "viewer.waypoint", "pk": 623, "fields": {"name": "AWLIN", "lat": "41.55625", "lon": "-71.99916666666667"}}, {"model": "viewer.waypoint", "pk": 624, "fields": {"name": "AWLIV", "lat": "36.05986111111111", "lon": "-96.80294444444444"}}, {"model": "viewer.waypoint", "pk": 625, "fields": {"name": "AWNUM", "lat": "43.395383333333335", "lon": "-69.83864722222222"}}, {"model": "viewer.waypoint", "pk": 626, "fields": {"name": "AWOLF", "lat": "32.36785", "lon": "-95.99688611111111"}}, {"model": "viewer.waypoint", "pk": 627, "fields": {"name": "AWOLF", "lat": "32.36786111111111", "lon": "-95.99688888888889"}}, {"model": "viewer.waypoint", "pk": 628, "fields": {"name": "AWOMY", "lat": "59.89606944444444", "lon": "-154.31848333333332"}}, {"model": "viewer.waypoint", "pk": 629, "fields": {"name": "AWPOJ", "lat": "34.28302222222222", "lon": "-86.41662222222223"}}, {"model": "viewer.waypoint", "pk": 630, "fields": {"name": "AWRAW", "lat": "39.573683333333335", "lon": "-108.35377222222222"}}, {"model": "viewer.waypoint", "pk": 631, "fields": {"name": "AWRYT", "lat": "34.70008611111111", "lon": "-81.24777777777778"}}, {"model": "viewer.waypoint", "pk": 632, "fields": {"name": "AWSON", "lat": "34.48032222222223", "lon": "-83.98429166666666"}}, {"model": "viewer.waypoint", "pk": 633, "fields": {"name": "AWSON", "lat": "34.480333333333334", "lon": "-83.98430555555555"}}, {"model": "viewer.waypoint", "pk": 634, "fields": {"name": "AWSTN", "lat": "29.581888888888887", "lon": "-95.53033333333333"}}, {"model": "viewer.waypoint", "pk": 635, "fields": {"name": "AWSUM", "lat": "41.52213888888889", "lon": "-86.57316666666667"}}, {"model": "viewer.waypoint", "pk": 636, "fields": {"name": "AWYAT", "lat": "35.039202777777774", "lon": "-81.61256388888889"}}, {"model": "viewer.waypoint", "pk": 637, "fields": {"name": "AXABE", "lat": "46.98935", "lon": "-109.95951944444445"}}, {"model": "viewer.waypoint", "pk": 638, "fields": {"name": "AXARY", "lat": "32.230586111111116", "lon": "-107.41622500000001"}}, {"model": "viewer.waypoint", "pk": 639, "fields": {"name": "AXEJA", "lat": "31.042322222222225", "lon": "-87.9504388888889"}}, {"model": "viewer.waypoint", "pk": 640, "fields": {"name": "AXEPE", "lat": "32.076505555555556", "lon": "-104.53318888888889"}}, {"model": "viewer.waypoint", "pk": 641, "fields": {"name": "AXGEX", "lat": "37.65566944444444", "lon": "-111.08682222222222"}}, {"model": "viewer.waypoint", "pk": 642, "fields": {"name": "AXIAL", "lat": "40.33634444444445", "lon": "-107.558125"}}, {"model": "viewer.waypoint", "pk": 643, "fields": {"name": "AXOBU", "lat": "42.94430722222222", "lon": "-82.3950875"}}, {"model": "viewer.waypoint", "pk": 644, "fields": {"name": "AXOSE", "lat": "31.88703333333333", "lon": "-84.94928611111112"}}, {"model": "viewer.waypoint", "pk": 645, "fields": {"name": "AXQOX", "lat": "45.833136111111116", "lon": "-122.13104722222222"}}, {"model": "viewer.waypoint", "pk": 646, "fields": {"name": "AXSIS", "lat": "30.945741666666667", "lon": "-88.07574444444444"}}, {"model": "viewer.waypoint", "pk": 647, "fields": {"name": "AXXEE", "lat": "34.32127777777778", "lon": "-95.88197222222222"}}, {"model": "viewer.waypoint", "pk": 648, "fields": {"name": "AXXEL", "lat": "36.073972222222224", "lon": "-88.33836111111111"}}, {"model": "viewer.waypoint", "pk": 649, "fields": {"name": "AXXIS", "lat": "42.83058333333334", "lon": "-81.9833888888889"}}, {"model": "viewer.waypoint", "pk": 650, "fields": {"name": "AXXXX", "lat": "38.01922222222222", "lon": "-121.64508333333335"}}, {"model": "viewer.waypoint", "pk": 651, "fields": {"name": "AYARA", "lat": "37.061211111111106", "lon": "-79.52358888888888"}}, {"model": "viewer.waypoint", "pk": 652, "fields": {"name": "AYAZE", "lat": "38.255694444444444", "lon": "-89.12238333333333"}}, {"model": "viewer.waypoint", "pk": 653, "fields": {"name": "AYBEE", "lat": "42.440555555555555", "lon": "-70.52791666666667"}}, {"model": "viewer.waypoint", "pk": 654, "fields": {"name": "AYBID", "lat": "28.324916666666667", "lon": "-79.26252777777778"}}, {"model": "viewer.waypoint", "pk": 655, "fields": {"name": "AYDEN", "lat": "30.308194444444446", "lon": "-96.35733333333333"}}, {"model": "viewer.waypoint", "pk": 656, "fields": {"name": "AYEDY", "lat": "38.963727777777784", "lon": "-108.50883055555556"}}, {"model": "viewer.waypoint", "pk": 657, "fields": {"name": "AYEEE", "lat": "32.684441666666665", "lon": "-93.80273888888888"}}, {"model": "viewer.waypoint", "pk": 658, "fields": {"name": "AYERR", "lat": "35.14022222222222", "lon": "-89.83422222222222"}}, {"model": "viewer.waypoint", "pk": 659, "fields": {"name": "AYIHE", "lat": "47.099830555555556", "lon": "-92.35300277777777"}}, {"model": "viewer.waypoint", "pk": 660, "fields": {"name": "AYISO", "lat": "47.06998888888889", "lon": "-120.42853333333333"}}, {"model": "viewer.waypoint", "pk": 661, "fields": {"name": "AYKID", "lat": "65.84931666666667", "lon": "-147.2762888888889"}}, {"model": "viewer.waypoint", "pk": 662, "fields": {"name": "AYOCI", "lat": "39.40213055555555", "lon": "-94.44809166666667"}}, {"model": "viewer.waypoint", "pk": 663, "fields": {"name": "AYOGU", "lat": "60.85036111111111", "lon": "-153.17425"}}, {"model": "viewer.waypoint", "pk": 664, "fields": {"name": "AYOTE", "lat": "34.711825000000005", "lon": "-87.61765"}}, {"model": "viewer.waypoint", "pk": 665, "fields": {"name": "AYUNE", "lat": "44.74570833333333", "lon": "-97.65462222222223"}}, {"model": "viewer.waypoint", "pk": 666, "fields": {"name": "AYUVO", "lat": "31.764091666666666", "lon": "-84.599575"}}, {"model": "viewer.waypoint", "pk": 667, "fields": {"name": "AYUYI", "lat": "41.72096388888889", "lon": "-85.77851666666666"}}, {"model": "viewer.waypoint", "pk": 668, "fields": {"name": "AYYYY", "lat": "33.90272222222222", "lon": "-118.18758333333334"}}, {"model": "viewer.waypoint", "pk": 669, "fields": {"name": "AYZOO", "lat": "44.42266111111111", "lon": "-71.67866388888889"}}, {"model": "viewer.waypoint", "pk": 670, "fields": {"name": "AZALA", "lat": "34.25394444444444", "lon": "-82.29558333333333"}}, {"model": "viewer.waypoint", "pk": 671, "fields": {"name": "AZCRD", "lat": "33.39422222222222", "lon": "-111.83763888888889"}}, {"model": "viewer.waypoint", "pk": 672, "fields": {"name": "AZELL", "lat": "35.85659722222223", "lon": "-80.2367"}}, {"model": "viewer.waypoint", "pk": 673, "fields": {"name": "AZHUP", "lat": "40.20164166666667", "lon": "-86.62398333333333"}}, {"model": "viewer.waypoint", "pk": 674, "fields": {"name": "AZIDE", "lat": "33.20272222222223", "lon": "-97.122"}}, {"model": "viewer.waypoint", "pk": 675, "fields": {"name": "AZONE", "lat": "35.02436111111111", "lon": "-89.131"}}, {"model": "viewer.waypoint", "pk": 676, "fields": {"name": "AZTEK", "lat": "32.72013888888889", "lon": "-116.65744444444445"}}, {"model": "viewer.waypoint", "pk": 677, "fields": {"name": "AZTRO", "lat": "41.89538888888889", "lon": "-81.94308333333333"}}, {"model": "viewer.waypoint", "pk": 678, "fields": {"name": "AZUMO", "lat": "41.45776111111111", "lon": "-87.00479722222222"}}, {"model": "viewer.waypoint", "pk": 679, "fields": {"name": "AZUMO", "lat": "41.457750000000004", "lon": "-87.00480555555555"}}, {"model": "viewer.waypoint", "pk": 680, "fields": {"name": "AZURE", "lat": "42.68259166666667", "lon": "-123.18055000000001"}}, {"model": "viewer.waypoint", "pk": 681, "fields": {"name": "AZXEW", "lat": "39.27036388888889", "lon": "-74.76871666666666"}}, {"model": "viewer.waypoint", "pk": 682, "fields": {"name": "AZZOG", "lat": "32.78583333333333", "lon": "-85.25019444444445"}}, {"model": "viewer.waypoint", "pk": 683, "fields": {"name": "AZZOZ", "lat": "45.25508055555556", "lon": "-98.21806388888889"}}, {"model": "viewer.waypoint", "pk": 684, "fields": {"name": "BAAAB", "lat": "30.158388888888886", "lon": "-98.17244444444445"}}, {"model": "viewer.waypoint", "pk": 685, "fields": {"name": "BAAAM", "lat": "38.831944444444446", "lon": "-77.11758333333333"}}, {"model": "viewer.waypoint", "pk": 686, "fields": {"name": "BAABS", "lat": "39.33094166666667", "lon": "-76.41135277777778"}}, {"model": "viewer.waypoint", "pk": 687, "fields": {"name": "BAABY", "lat": "39.51633611111111", "lon": "-79.34599166666666"}}, {"model": "viewer.waypoint", "pk": 688, "fields": {"name": "BAACK", "lat": "40.02286111111111", "lon": "-104.86122222222221"}}, {"model": "viewer.waypoint", "pk": 689, "fields": {"name": "BAAKE", "lat": "29.84686111111111", "lon": "-95.92925000000001"}}, {"model": "viewer.waypoint", "pk": 690, "fields": {"name": "BAALK", "lat": "38.258805555555554", "lon": "-85.75580555555555"}}, {"model": "viewer.waypoint", "pk": 691, "fields": {"name": "BAAND", "lat": "39.49988888888889", "lon": "-104.10847222222222"}}, {"model": "viewer.waypoint", "pk": 692, "fields": {"name": "BAARB", "lat": "41.157605555555556", "lon": "-120.11366666666666"}}, {"model": "viewer.waypoint", "pk": 693, "fields": {"name": "BAART", "lat": "36.46194444444445", "lon": "-126.93333333333334"}}, {"model": "viewer.waypoint", "pk": 694, "fields": {"name": "BAARY", "lat": "26.583333333333332", "lon": "-82.23333333333333"}}, {"model": "viewer.waypoint", "pk": 695, "fields": {"name": "BAATS", "lat": "30.526666666666667", "lon": "-95.93966666666667"}}, {"model": "viewer.waypoint", "pk": 696, "fields": {"name": "BAAYY", "lat": "36.80333333333333", "lon": "-75.33519444444444"}}, {"model": "viewer.waypoint", "pk": 697, "fields": {"name": "BABAA", "lat": "39.95172222222222", "lon": "-104.80458333333333"}}, {"model": "viewer.waypoint", "pk": 698, "fields": {"name": "BABBE", "lat": "44.21654166666667", "lon": "-85.61935"}}, {"model": "viewer.waypoint", "pk": 699, "fields": {"name": "BABEE", "lat": "41.53261388888889", "lon": "-77.19738611111111"}}, {"model": "viewer.waypoint", "pk": 700, "fields": {"name": "BABIT", "lat": "38.51147777777778", "lon": "-118.38457222222223"}}, {"model": "viewer.waypoint", "pk": 701, "fields": {"name": "BABNE", "lat": "40.14025", "lon": "-85.61894444444444"}}, {"model": "viewer.waypoint", "pk": 702, "fields": {"name": "BABYA", "lat": "42.57543611111112", "lon": "-94.58414722222221"}}, {"model": "viewer.waypoint", "pk": 703, "fields": {"name": "BABYY", "lat": "35.16536111111111", "lon": "-107.25272222222222"}}, {"model": "viewer.waypoint", "pk": 704, "fields": {"name": "BACAS", "lat": "39.128055555555555", "lon": "-84.54083333333332"}}, {"model": "viewer.waypoint", "pk": 705, "fields": {"name": "BACEN", "lat": "41.406666666666666", "lon": "-88.02972222222222"}}, {"model": "viewer.waypoint", "pk": 706, "fields": {"name": "BACHR", "lat": "32.81088888888888", "lon": "-96.67888888888889"}}, {"model": "viewer.waypoint", "pk": 707, "fields": {"name": "BACHS", "lat": "41.26178888888889", "lon": "-121.00125"}}, {"model": "viewer.waypoint", "pk": 708, "fields": {"name": "BACHS", "lat": "41.26177777777778", "lon": "-121.00125"}}, {"model": "viewer.waypoint", "pk": 709, "fields": {"name": "BACMY", "lat": "65.54043055555556", "lon": "-146.1334361111111"}}, {"model": "viewer.waypoint", "pk": 710, "fields": {"name": "BACMY", "lat": "65.54044444444445", "lon": "-146.13344444444445"}}, {"model": "viewer.waypoint", "pk": 711, "fields": {"name": "BACNN", "lat": "40.17350555555555", "lon": "-94.29684166666667"}}, {"model": "viewer.waypoint", "pk": 712, "fields": {"name": "BACRT", "lat": "39.59861111111111", "lon": "-119.66283333333334"}}, {"model": "viewer.waypoint", "pk": 713, "fields": {"name": "BACTA", "lat": "37.75380555555556", "lon": "-91.93111111111112"}}, {"model": "viewer.waypoint", "pk": 714, "fields": {"name": "BACUN", "lat": "46.304455555555556", "lon": "-118.4867888888889"}}, {"model": "viewer.waypoint", "pk": 715, "fields": {"name": "BADAN", "lat": "43.742177777777776", "lon": "-88.78883055555555"}}, {"model": "viewer.waypoint", "pk": 716, "fields": {"name": "BADCA", "lat": "42.60777777777778", "lon": "-71.712"}}, {"model": "viewer.waypoint", "pk": 717, "fields": {"name": "BADDI", "lat": "40.157294444444446", "lon": "-77.41883611111112"}}, {"model": "viewer.waypoint", "pk": 718, "fields": {"name": "BADER", "lat": "40.349563888888895", "lon": "-90.39161111111112"}}, {"model": "viewer.waypoint", "pk": 719, "fields": {"name": "BAERE", "lat": "52.203322222222226", "lon": "-176.13570277777777"}}, {"model": "viewer.waypoint", "pk": 720, "fields": {"name": "BAETZ", "lat": "33.07655555555556", "lon": "-96.86097222222222"}}, {"model": "viewer.waypoint", "pk": 721, "fields": {"name": "BAFIN", "lat": "60.32714444444445", "lon": "-161.42237777777777"}}, {"model": "viewer.waypoint", "pk": 722, "fields": {"name": "BAGBY", "lat": "37.617536111111114", "lon": "-120.15765"}}, {"model": "viewer.waypoint", "pk": 723, "fields": {"name": "BAGEL", "lat": "41.515975", "lon": "-85.61368888888889"}}, {"model": "viewer.waypoint", "pk": 724, "fields": {"name": "BAGGA", "lat": "40.621805555555554", "lon": "-74.19219444444445"}}, {"model": "viewer.waypoint", "pk": 725, "fields": {"name": "BAGGI", "lat": "40.742847222222224", "lon": "-113.53928055555555"}}, {"model": "viewer.waypoint", "pk": 726, "fields": {"name": "BAGGS", "lat": "27.134249999999998", "lon": "-82.84088888888888"}}, {"model": "viewer.waypoint", "pk": 727, "fields": {"name": "BAGGY", "lat": "32.61490555555556", "lon": "-80.45074166666667"}}, {"model": "viewer.waypoint", "pk": 728, "fields": {"name": "BAGGY", "lat": "32.614916666666666", "lon": "-80.45075"}}, {"model": "viewer.waypoint", "pk": 729, "fields": {"name": "BAGLE", "lat": "46.09169444444445", "lon": "-66.90366666666667"}}, {"model": "viewer.waypoint", "pk": 730, "fields": {"name": "BAGZZ", "lat": "27.24377777777778", "lon": "-80.19697222222223"}}, {"model": "viewer.waypoint", "pk": 731, "fields": {"name": "BAHMA", "lat": "25.941111111111113", "lon": "-79.12952777777777"}}, {"model": "viewer.waypoint", "pk": 732, "fields": {"name": "BAHRR", "lat": "33.471361111111115", "lon": "-85.24568888888889"}}, {"model": "viewer.waypoint", "pk": 733, "fields": {"name": "BAILL", "lat": "34.46930555555556", "lon": "-119.03"}}, {"model": "viewer.waypoint", "pk": 734, "fields": {"name": "BAILY", "lat": "57.90938611111111", "lon": "-152.91026944444445"}}, {"model": "viewer.waypoint", "pk": 735, "fields": {"name": "BAIME", "lat": "65.07679999999999", "lon": "-164.63475"}}, {"model": "viewer.waypoint", "pk": 736, "fields": {"name": "BAING", "lat": "31.965652777777777", "lon": "-89.22450555555555"}}, {"model": "viewer.waypoint", "pk": 737, "fields": {"name": "BAINS", "lat": "39.63860277777778", "lon": "-75.91436666666667"}}, {"model": "viewer.waypoint", "pk": 738, "fields": {"name": "BAINY", "lat": "45.75361111111111", "lon": "-93.69944444444445"}}, {"model": "viewer.waypoint", "pk": 739, "fields": {"name": "BAIRN", "lat": "27.947880555555557", "lon": "-81.11509722222222"}}, {"model": "viewer.waypoint", "pk": 740, "fields": {"name": "BAIRN", "lat": "27.94788888888889", "lon": "-81.1151111111111"}}, {"model": "viewer.waypoint", "pk": 741, "fields": {"name": "BAISS", "lat": "35.17816666666666", "lon": "-97.47333333333333"}}, {"model": "viewer.waypoint", "pk": 742, "fields": {"name": "BAITS", "lat": "45.32346666666667", "lon": "-90.32806111111111"}}, {"model": "viewer.waypoint", "pk": 743, "fields": {"name": "BAITT", "lat": "59.00313888888889", "lon": "-151.8539722222222"}}, {"model": "viewer.waypoint", "pk": 744, "fields": {"name": "BAIZE", "lat": "31.775949999999998", "lon": "-85.20971111111112"}}, {"model": "viewer.waypoint", "pk": 745, "fields": {"name": "BAKCA", "lat": "46.50467777777778", "lon": "-119.16633888888889"}}, {"model": "viewer.waypoint", "pk": 746, "fields": {"name": "BAKOS", "lat": "30.818930555555557", "lon": "-86.8144361111111"}}, {"model": "viewer.waypoint", "pk": 747, "fields": {"name": "BAKRE", "lat": "33.89606944444444", "lon": "-90.96798611111112"}}, {"model": "viewer.waypoint", "pk": 748, "fields": {"name": "BAKRR", "lat": "36.075833333333335", "lon": "-114.95305555555557"}}, {"model": "viewer.waypoint", "pk": 749, "fields": {"name": "BALBO", "lat": "33.600458333333336", "lon": "-117.83879166666667"}}, {"model": "viewer.waypoint", "pk": 750, "fields": {"name": "BALDE", "lat": "40.47827222222222", "lon": "-74.19236388888889"}}, {"model": "viewer.waypoint", "pk": 751, "fields": {"name": "BALDI", "lat": "33.65791111111111", "lon": "-116.49769166666667"}}, {"model": "viewer.waypoint", "pk": 752, "fields": {"name": "BALEW", "lat": "26.46511111111111", "lon": "-79.77602777777777"}}, {"model": "viewer.waypoint", "pk": 753, "fields": {"name": "BALIN", "lat": "66.56515", "lon": "-161.57568055555555"}}, {"model": "viewer.waypoint", "pk": 754, "fields": {"name": "BALKE", "lat": "27.95997222222222", "lon": "-82.51263888888889"}}, {"model": "viewer.waypoint", "pk": 755, "fields": {"name": "BALKK", "lat": "29.419944444444447", "lon": "-97.02691666666666"}}, {"model": "viewer.waypoint", "pk": 756, "fields": {"name": "BALTA", "lat": "48.19074722222222", "lon": "-100.04755555555555"}}, {"model": "viewer.waypoint", "pk": 757, "fields": {"name": "BALTE", "lat": "33.42883333333333", "lon": "-112.21130555555555"}}, {"model": "viewer.waypoint", "pk": 758, "fields": {"name": "BAMAA", "lat": "36.133966666666666", "lon": "-114.73151388888888"}}, {"model": "viewer.waypoint", "pk": 759, "fields": {"name": "BAMAA", "lat": "36.13397222222222", "lon": "-114.73152777777779"}}, {"model": "viewer.waypoint", "pk": 760, "fields": {"name": "BAMBB", "lat": "42.09097222222223", "lon": "-88.27536111111111"}}, {"model": "viewer.waypoint", "pk": 761, "fields": {"name": "BAMBE", "lat": "46.85715555555556", "lon": "-113.702025"}}, {"model": "viewer.waypoint", "pk": 762, "fields": {"name": "BAMBO", "lat": "21.41654722222222", "lon": "-157.5100111111111"}}, {"model": "viewer.waypoint", "pk": 763, "fields": {"name": "BAMBO", "lat": "21.416555555555554", "lon": "-157.51"}}, {"model": "viewer.waypoint", "pk": 764, "fields": {"name": "BAMDE", "lat": "33.082638888888894", "lon": "-79.93897222222222"}}, {"model": "viewer.waypoint", "pk": 765, "fields": {"name": "BAMGE", "lat": "39.12833333333333", "lon": "-84.7786111111111"}}, {"model": "viewer.waypoint", "pk": 766, "fields": {"name": "BAMMA", "lat": "35.684777777777775", "lon": "-85.19875"}}, {"model": "viewer.waypoint", "pk": 767, "fields": {"name": "BAMMY", "lat": "39.40920277777778", "lon": "-78.42934444444445"}}, {"model": "viewer.waypoint", "pk": 768, "fields": {"name": "BANAT", "lat": "62.21349444444445", "lon": "-165.6668361111111"}}, {"model": "viewer.waypoint", "pk": 769, "fields": {"name": "BANBI", "lat": "31.834527777777776", "lon": "-85.75980555555556"}}, {"model": "viewer.waypoint", "pk": 770, "fields": {"name": "BANCO", "lat": "43.23672222222223", "lon": "-94.14856111111112"}}, {"model": "viewer.waypoint", "pk": 771, "fields": {"name": "BANDR", "lat": "47.25837222222222", "lon": "-121.49225277777778"}}, {"model": "viewer.waypoint", "pk": 772, "fields": {"name": "BANDR", "lat": "47.258361111111114", "lon": "-121.49225"}}, {"model": "viewer.waypoint", "pk": 773, "fields": {"name": "BANDS", "lat": "33.889608333333335", "lon": "-116.84948055555554"}}, {"model": "viewer.waypoint", "pk": 774, "fields": {"name": "BANER", "lat": "41.61061111111111", "lon": "-87.97205555555556"}}, {"model": "viewer.waypoint", "pk": 775, "fields": {"name": "BANEY", "lat": "46.23920833333334", "lon": "-96.93747222222223"}}, {"model": "viewer.waypoint", "pk": 776, "fields": {"name": "BANGR", "lat": "47.64391666666667", "lon": "-122.91491666666667"}}, {"model": "viewer.waypoint", "pk": 777, "fields": {"name": "BANGS", "lat": "44.06950277777778", "lon": "-116.19810000000001"}}, {"model": "viewer.waypoint", "pk": 778, "fields": {"name": "BANJO", "lat": "44.11063611111111", "lon": "-84.17598333333333"}}, {"model": "viewer.waypoint", "pk": 779, "fields": {"name": "BANKA", "lat": "40.381302777777776", "lon": "-74.05116666666666"}}, {"model": "viewer.waypoint", "pk": 780, "fields": {"name": "BANKI", "lat": "41.595666666666666", "lon": "-71.86766666666666"}}, {"model": "viewer.waypoint", "pk": 781, "fields": {"name": "BANKR", "lat": "34.48738888888889", "lon": "-81.51955555555556"}}, {"model": "viewer.waypoint", "pk": 782, "fields": {"name": "BANND", "lat": "37.75991666666667", "lon": "-121.06183333333333"}}, {"model": "viewer.waypoint", "pk": 783, "fields": {"name": "BANNE", "lat": "54.09924166666667", "lon": "-130.63778888888888"}}, {"model": "viewer.waypoint", "pk": 784, "fields": {"name": "BANNG", "lat": "32.96125", "lon": "-84.4213888888889"}}, {"model": "viewer.waypoint", "pk": 785, "fields": {"name": "BANNO", "lat": "42.72034722222222", "lon": "-112.60687222222222"}}, {"model": "viewer.waypoint", "pk": 786, "fields": {"name": "BANYO", "lat": "33.84128611111112", "lon": "-112.07420277777777"}}, {"model": "viewer.waypoint", "pk": 787, "fields": {"name": "BANZA", "lat": "38.68138888888889", "lon": "-121.6948888888889"}}, {"model": "viewer.waypoint", "pk": 788, "fields": {"name": "BAPPY", "lat": "34.130325", "lon": "-84.42455277777778"}}, {"model": "viewer.waypoint", "pk": 789, "fields": {"name": "BARAK", "lat": "44.77118888888889", "lon": "-85.29916388888888"}}, {"model": "viewer.waypoint", "pk": 790, "fields": {"name": "BARBA", "lat": "31.101136111111114", "lon": "-97.18894722222223"}}, {"model": "viewer.waypoint", "pk": 791, "fields": {"name": "BARBS", "lat": "29.307455555555556", "lon": "-81.40875555555556"}}, {"model": "viewer.waypoint", "pk": 792, "fields": {"name": "BARBY", "lat": "20.860986111111114", "lon": "-155.97984444444444"}}, {"model": "viewer.waypoint", "pk": 793, "fields": {"name": "BAREL", "lat": "58.81412777777778", "lon": "-152.4097027777778"}}, {"model": "viewer.waypoint", "pk": 794, "fields": {"name": "BARES", "lat": "31.212452777777777", "lon": "-97.20475"}},